[
{"ID":"1","Name":"沙头角中英街","SeaCoast":"深圳大鹏湾岸段","Section":"10","ForcastStation":"75","lng":"114.2369546","lat":"22.54940768","height":"3.06","珠基高程":"2.32","land":"沙头角","district":"盐田区","value":"103","ObservedTime":"2020/4/9 13:55"},
{"ID":"2","Name":"沙头角碧海花园","SeaCoast":"深圳大鹏湾岸段","Section":"10","ForcastStation":"76","lng":"114.2389404","lat":"22.54746477","height":"3.18","珠基高程":"2.44","land":"沙头角","district":"盐田区","value":"103","ObservedTime":"2020/4/9 13:55"},
{"ID":"3","Name":"东和海韵园","SeaCoast":"深圳大鹏湾岸段","Section":"10","ForcastStation":"77","lng":"114.2413339","lat":"22.54901964","height":"3.66","珠基高程":"2.92","land":"沙头角","district":"盐田区","value":"102","ObservedTime":"2020/4/9 13:55"},
{"ID":"4","Name":"盐田区古塔公园","SeaCoast":"深圳大鹏湾岸段","Section":"10","ForcastStation":"78","lng":"114.2420332","lat":"22.55150732","height":"3.62","珠基高程":"2.88","land":"沙头角","district":"盐田区","value":"102","ObservedTime":"2020/4/9 13:55"},
{"ID":"5","Name":"东浦海景花园","SeaCoast":"深圳大鹏湾岸段","Section":"10","ForcastStation":"79","lng":"114.2444188","lat":"22.55307609","height":"3.96","珠基高程":"3.22","land":"沙头角","district":"盐田区","value":"102","ObservedTime":"2020/4/9 13:55"},
{"ID":"6","Name":"东浦海景花园","SeaCoast":"深圳大鹏湾岸段","Section":"10","ForcastStation":"80","lng":"114.2457949","lat":"22.55545665","height":"4.35","珠基高程":"3.61","land":"沙头角","district":"盐田区","value":"102","ObservedTime":"2020/4/9 13:55"},
{"ID":"7","Name":"明思克航母世界","SeaCoast":"深圳大鹏湾岸段","Section":"10","ForcastStation":"81","lng":"114.2473966","lat":"22.55771727","height":"4.38","珠基高程":"3.64","land":"沙头角","district":"盐田区","value":"99","ObservedTime":"2020/4/9 13:55"},
{"ID":"8","Name":"深圳市规划局滨海分局","SeaCoast":"深圳大鹏湾岸段","Section":"10","ForcastStation":"82","lng":"114.2494131","lat":"22.55967924","height":"4.82","珠基高程":"4.08","land":"沙头角","district":"盐田区","value":"99","ObservedTime":"2020/4/9 13:55"},
{"ID":"9","Name":"精茂科技配套生活住宅","SeaCoast":"深圳大鹏湾岸段","Section":"10","ForcastStation":"83","lng":"114.2514442","lat":"22.56161325","height":"4.85","珠基高程":"4.11","land":"沙头角","district":"盐田区","value":"99","ObservedTime":"2020/4/9 13:55"},
{"ID":"10","Name":"盐田消防大队水上中队","SeaCoast":"深圳大鹏湾岸段","Section":"10","ForcastStation":"84","lng":"114.2530632","lat":"22.56322759","height":"4.98","珠基高程":"4.24","land":"沙头角","district":"盐田区","value":"98","ObservedTime":"2020/4/9 13:55"},
{"ID":"11","Name":"盐田港西港区","SeaCoast":"深圳大鹏湾岸段","Section":"10","ForcastStation":"85","lng":"114.2556157","lat":"22.5604694","height":"4.78","珠基高程":"4.04","land":"盐田港","district":"盐田区","value":"98","ObservedTime":"2020/4/9 13:55"},
{"ID":"12","Name":"盐田港西港区","SeaCoast":"深圳大鹏湾岸段","Section":"10","ForcastStation":"86","lng":"114.2579631","lat":"22.56204934","height":"4.56","珠基高程":"3.82","land":"盐田港","district":"盐田区","value":"98","ObservedTime":"2020/4/9 13:55"},
{"ID":"13","Name":"盐田港西港区","SeaCoast":"深圳大鹏湾岸段","Section":"10","ForcastStation":"87","lng":"114.2601751","lat":"22.5638071","height":"4.59","珠基高程":"3.85","land":"盐田港","district":"盐田区","value":"98","ObservedTime":"2020/4/9 13:55"},
{"ID":"14","Name":"盐田港西港区","SeaCoast":"深圳大鹏湾岸段","Section":"10","ForcastStation":"88","lng":"114.2623949","lat":"22.56554342","height":"4.85","珠基高程":"4.11","land":"盐田港","district":"盐田区","value":"97","ObservedTime":"2020/4/9 13:55"},
{"ID":"15","Name":"盐田港西港区","SeaCoast":"深圳大鹏湾岸段","Section":"10","ForcastStation":"89","lng":"114.2641181","lat":"22.56639171","height":"4.58","珠基高程":"3.84","land":"盐田港","district":"盐田区","value":"97","ObservedTime":"2020/4/9 13:55"},
{"ID":"16","Name":"盐田港西港区","SeaCoast":"深圳大鹏湾岸段","Section":"10","ForcastStation":"90","lng":"114.2608226","lat":"22.57001132","height":"4.87","珠基高程":"4.13","land":"盐田港","district":"盐田区","value":"97","ObservedTime":"2020/4/9 13:55"},
{"ID":"17","Name":"盐田港西港区","SeaCoast":"深圳大鹏湾岸段","Section":"10","ForcastStation":"91","lng":"114.2607555","lat":"22.5742502","height":"4.63","珠基高程":"3.89","land":"盐田港","district":"盐田区","value":"97","ObservedTime":"2020/4/9 13:55"},
{"ID":"18","Name":"盐田港西港区","SeaCoast":"深圳大鹏湾岸段","Section":"10","ForcastStation":"92","lng":"114.2650719","lat":"22.56952224","height":"4.78","珠基高程":"4.04","land":"盐田港","district":"盐田区","value":"97","ObservedTime":"2020/4/9 13:55"},
{"ID":"19","Name":"盐田港西港区","SeaCoast":"深圳大鹏湾岸段","Section":"10","ForcastStation":"93","lng":"114.2672836","lat":"22.57126086","height":"4.76","珠基高程":"4.02","land":"盐田港","district":"盐田区","value":"97","ObservedTime":"2020/4/9 13:55"},
{"ID":"20","Name":"盐田港西港区","SeaCoast":"深圳大鹏湾岸段","Section":"10","ForcastStation":"94","lng":"114.2694848","lat":"22.57300813","height":"4.83","珠基高程":"4.09","land":"盐田港","district":"盐田区","value":"97","ObservedTime":"2020/4/9 13:55"},
{"ID":"21","Name":"盐田港西港区","SeaCoast":"深圳大鹏湾岸段","Section":"10","ForcastStation":"95","lng":"114.271708","lat":"22.57474091","height":"4.78","珠基高程":"4.04","land":"盐田港","district":"盐田区","value":"97","ObservedTime":"2020/4/9 13:55"},
{"ID":"22","Name":"盐田港西港区","SeaCoast":"深圳大鹏湾岸段","Section":"10","ForcastStation":"96","lng":"114.273908","lat":"22.57647376","height":"4.66","珠基高程":"3.92","land":"盐田港","district":"盐田区","value":"97","ObservedTime":"2020/4/9 13:55"},
{"ID":"23","Name":"盐田国际集装箱码头","SeaCoast":"深圳大鹏湾岸段","Section":"10","ForcastStation":"97","lng":"114.2772129","lat":"22.57906827","height":"4.72","珠基高程":"3.98","land":"盐田港","district":"盐田区","value":"97","ObservedTime":"2020/4/9 13:55"},
{"ID":"24","Name":"盐田国际集装箱码头","SeaCoast":"深圳大鹏湾岸段","Section":"10","ForcastStation":"98","lng":"114.2791295","lat":"22.5769781","height":"4.85","珠基高程":"4.11","land":"盐田港","district":"盐田区","value":"97","ObservedTime":"2020/4/9 13:55"},
{"ID":"25","Name":"盐田国际集装箱码头","SeaCoast":"深圳大鹏湾岸段","Section":"10","ForcastStation":"99","lng":"114.2810375","lat":"22.57489882","height":"4.84","珠基高程":"4.1","land":"盐田港","district":"盐田区","value":"97","ObservedTime":"2020/4/9 13:55"},
{"ID":"26","Name":"盐田国际集装箱码头","SeaCoast":"深圳大鹏湾岸段","Section":"10","ForcastStation":"100","lng":"114.2829518","lat":"22.57282998","height":"4.83","珠基高程":"4.09","land":"盐田港","district":"盐田区","value":"96","ObservedTime":"2020/4/9 13:55"},
{"ID":"27","Name":"盐田国际集装箱码头","SeaCoast":"深圳大鹏湾岸段","Section":"10","ForcastStation":"101","lng":"114.2861543","lat":"22.5693555","height":"4.79","珠基高程":"4.05","land":"盐田港","district":"盐田区","value":"96","ObservedTime":"2020/4/9 13:55"},
{"ID":"28","Name":"盐田国际集装箱码头","SeaCoast":"深圳大鹏湾岸段","Section":"10","ForcastStation":"102","lng":"114.2890143","lat":"22.56985993","height":"4.78","珠基高程":"4.04","land":"盐田港","district":"盐田区","value":"96","ObservedTime":"2020/4/9 13:55"},
{"ID":"29","Name":"盐田国际集装箱码头","SeaCoast":"深圳大鹏湾岸段","Section":"11","ForcastStation":"103","lng":"114.2919308","lat":"22.56954318","height":"5.32","珠基高程":"4.58","land":"盐田港","district":"盐田区","value":"96","ObservedTime":"2020/4/9 13:55"},
{"ID":"30","Name":"盐田国际集装箱码头","SeaCoast":"深圳大鹏湾岸段","Section":"11","ForcastStation":"104","lng":"114.2948509","lat":"22.5696106","height":"5.41","珠基高程":"4.67","land":"盐田港","district":"盐田区","value":"95","ObservedTime":"2020/4/9 13:55"},
{"ID":"31","Name":"盐田国际集装箱码头","SeaCoast":"深圳大鹏湾岸段","Section":"11","ForcastStation":"105","lng":"114.3000351","lat":"22.56981654","height":"5.59","珠基高程":"4.85","land":"盐田港","district":"盐田区","value":"96","ObservedTime":"2020/4/9 13:55"},
{"ID":"32","Name":"盐田国际集装箱码头","SeaCoast":"深圳大鹏湾岸段","Section":"11","ForcastStation":"106","lng":"114.2981253","lat":"22.57187322","height":"5.06","珠基高程":"4.32","land":"盐田港","district":"盐田区","value":"96","ObservedTime":"2020/4/9 13:55"},
{"ID":"33","Name":"盐田国际集装箱码头","SeaCoast":"深圳大鹏湾岸段","Section":"11","ForcastStation":"107","lng":"114.2962078","lat":"22.57393685","height":"5.13","珠基高程":"4.39","land":"盐田港","district":"盐田区","value":"96","ObservedTime":"2020/4/9 13:55"},
{"ID":"34","Name":"盐田国际集装箱码头","SeaCoast":"深圳大鹏湾岸段","Section":"11","ForcastStation":"108","lng":"114.294297","lat":"22.57599845","height":"5.08","珠基高程":"4.34","land":"盐田港","district":"盐田区","value":"96","ObservedTime":"2020/4/9 13:55"},
{"ID":"35","Name":"盐田国际集装箱码头","SeaCoast":"深圳大鹏湾岸段","Section":"11","ForcastStation":"109","lng":"114.2923823","lat":"22.57807257","height":"5.23","珠基高程":"4.49","land":"盐田港","district":"盐田区","value":"96","ObservedTime":"2020/4/9 13:55"},
{"ID":"36","Name":"盐田国际集装箱码头","SeaCoast":"深圳大鹏湾岸段","Section":"11","ForcastStation":"110","lng":"114.2904713","lat":"22.58014398","height":"5.28","珠基高程":"4.54","land":"盐田港","district":"盐田区","value":"96","ObservedTime":"2020/4/9 13:55"},
{"ID":"37","Name":"盐田国际集装箱码头","SeaCoast":"深圳大鹏湾岸段","Section":"11","ForcastStation":"111","lng":"114.2885591","lat":"22.58221981","height":"5.31","珠基高程":"4.57","land":"盐田港","district":"盐田区","value":"96","ObservedTime":"2020/4/9 13:55"},
{"ID":"38","Name":"盐田国际集装箱码头","SeaCoast":"深圳大鹏湾岸段","Section":"11","ForcastStation":"112","lng":"114.2866477","lat":"22.58429489","height":"5.36","珠基高程":"4.62","land":"盐田港","district":"盐田区","value":"97","ObservedTime":"2020/4/9 13:55"},
{"ID":"39","Name":"盐田国际集装箱码头","SeaCoast":"深圳大鹏湾岸段","Section":"11","ForcastStation":"113","lng":"114.2847312","lat":"22.58637091","height":"5.46","珠基高程":"4.72","land":"盐田港","district":"盐田区","value":"97","ObservedTime":"2020/4/9 13:55"},
{"ID":"40","Name":"盐田国际集装箱码头","SeaCoast":"深圳大鹏湾岸段","Section":"11","ForcastStation":"114","lng":"114.2824011","lat":"22.58466208","height":"5.13","珠基高程":"4.39","land":"盐田港","district":"盐田区","value":"97","ObservedTime":"2020/4/9 13:55"},
{"ID":"41","Name":"南海水产研究所","SeaCoast":"深圳大鹏湾岸段","Section":"11","ForcastStation":"115","lng":"114.2773691","lat":"22.58665958","height":"5.38","珠基高程":"4.64","land":"盐田海鲜街","district":"盐田区","value":"97","ObservedTime":"2020/4/9 13:55"},
{"ID":"42","Name":"盐田西山","SeaCoast":"深圳大鹏湾岸段","Section":"11","ForcastStation":"116","lng":"114.2814995","lat":"22.58856984","height":"6.89","珠基高程":"6.15","land":"盐田海鲜街","district":"盐田区","value":"97","ObservedTime":"2020/4/9 13:55"},
{"ID":"43","Name":"盐田河","SeaCoast":"深圳大鹏湾岸段","Section":"11","ForcastStation":"117","lng":"114.2781132","lat":"22.59240654","height":"6.03","珠基高程":"5.29","land":"盐田海鲜街","district":"盐田区","value":"97","ObservedTime":"2020/4/9 13:55"},
{"ID":"44","Name":"盐田河","SeaCoast":"深圳大鹏湾岸段","Section":"11","ForcastStation":"118","lng":"114.2805887","lat":"22.5909277","height":"3.68","珠基高程":"2.94","land":"盐田海鲜街","district":"盐田区","value":"97","ObservedTime":"2020/4/9 13:55"},
{"ID":"45","Name":"盐田边防码头工作站","SeaCoast":"深圳大鹏湾岸段","Section":"11","ForcastStation":"119","lng":"114.2824942","lat":"22.58745784","height":"4.26","珠基高程":"3.52","land":"盐田海鲜街","district":"盐田区","value":"97","ObservedTime":"2020/4/9 13:55"},
{"ID":"46","Name":"盐田海鲜街","SeaCoast":"深圳大鹏湾岸段","Section":"11","ForcastStation":"120","lng":"114.284041","lat":"22.58974217","height":"5.46","珠基高程":"4.72","land":"盐田海鲜街","district":"盐田区","value":"97","ObservedTime":"2020/4/9 13:55"},
{"ID":"47","Name":"盐梅路","SeaCoast":"深圳大鹏湾岸段","Section":"11","ForcastStation":"121","lng":"114.2867897","lat":"22.59255835","height":"6.76","珠基高程":"6.02","land":"盐田海鲜街","district":"盐田区","value":"97","ObservedTime":"2020/4/9 13:55"},
{"ID":"48","Name":"盐梅路","SeaCoast":"深圳大鹏湾岸段","Section":"11","ForcastStation":"122","lng":"114.2888402","lat":"22.5922677","height":"16.4","珠基高程":"15.7","land":"盐田海鲜街","district":"盐田区","value":"96","ObservedTime":"2020/4/9 13:55"},
{"ID":"49","Name":"深圳海关缉私局海上缉私处","SeaCoast":"深圳大鹏湾岸段","Section":"11","ForcastStation":"123","lng":"114.2909097","lat":"22.59158199","height":"3.72","珠基高程":"2.98","land":"盐田海鲜街","district":"盐田区","value":"96","ObservedTime":"2020/4/9 13:55"},
{"ID":"50","Name":"深圳海关缉私局海上缉私处","SeaCoast":"深圳大鹏湾岸段","Section":"11","ForcastStation":"124","lng":"114.2915426","lat":"22.5896933","height":"3.54","珠基高程":"2.8","land":"盐田海鲜街","district":"盐田区","value":"96","ObservedTime":"2020/4/9 13:55"},
{"ID":"51","Name":"深圳海关缉私局海上缉私处","SeaCoast":"深圳大鹏湾岸段","Section":"11","ForcastStation":"125","lng":"114.2936924","lat":"22.59071423","height":"7.29","珠基高程":"6.55","land":"盐田海鲜街","district":"盐田区","value":"96","ObservedTime":"2020/4/9 13:55"},
{"ID":"52","Name":"盐田港东港区","SeaCoast":"深圳大鹏湾岸段","Section":"11","ForcastStation":"126","lng":"114.292431","lat":"22.58824529","height":"5.19","珠基高程":"4.45","land":"盐田海鲜街","district":"盐田区","value":"96","ObservedTime":"2020/4/9 13:55"},
{"ID":"53","Name":"盐田港东港区","SeaCoast":"深圳大鹏湾岸段","Section":"11","ForcastStation":"127","lng":"114.2946673","lat":"22.58647212","height":"5.24","珠基高程":"4.5","land":"盐田海鲜街","district":"盐田区","value":"96","ObservedTime":"2020/4/9 13:55"},
{"ID":"54","Name":"盐田港东港区","SeaCoast":"深圳大鹏湾岸段","Section":"11","ForcastStation":"128","lng":"114.2969966","lat":"22.58481965","height":"5.64","珠基高程":"4.9","land":"盐田海鲜街","district":"盐田区","value":"95","ObservedTime":"2020/4/9 13:55"},
{"ID":"55","Name":"盐田港东港区","SeaCoast":"深圳大鹏湾岸段","Section":"11","ForcastStation":"129","lng":"114.2992046","lat":"22.58302862","height":"5.62","珠基高程":"4.88","land":"盐田海鲜街","district":"盐田区","value":"95","ObservedTime":"2020/4/9 13:55"},
{"ID":"56","Name":"盐田港东港区","SeaCoast":"深圳大鹏湾岸段","Section":"11","ForcastStation":"130","lng":"114.3014152","lat":"22.58124613","height":"5.57","珠基高程":"4.83","land":"盐田海鲜街","district":"盐田区","value":"95","ObservedTime":"2020/4/9 13:55"},
{"ID":"57","Name":"盐田港东港区","SeaCoast":"深圳大鹏湾岸段","Section":"11","ForcastStation":"131","lng":"114.3041785","lat":"22.58035652","height":"5.68","珠基高程":"4.94","land":"盐田海鲜街","district":"盐田区","value":"94","ObservedTime":"2020/4/9 13:55"},
{"ID":"58","Name":"盐田港东港区","SeaCoast":"深圳大鹏湾岸段","Section":"11","ForcastStation":"132","lng":"114.3061113","lat":"22.57832425","height":"5.06","珠基高程":"4.32","land":"盐田海鲜街","district":"盐田区","value":"94","ObservedTime":"2020/4/9 13:55"},
{"ID":"59","Name":"盐田港东港区","SeaCoast":"深圳大鹏湾岸段","Section":"12","ForcastStation":"133","lng":"114.3083392","lat":"22.57608781","height":"5.41","珠基高程":"4.67","land":"盐田海鲜街","district":"盐田区","value":"94","ObservedTime":"2020/4/9 13:55"},
{"ID":"60","Name":"盐田港东港区","SeaCoast":"深圳大鹏湾岸段","Section":"12","ForcastStation":"134","lng":"114.3114334","lat":"22.57585672","height":"5.57","珠基高程":"4.83","land":"盐田海鲜街","district":"盐田区","value":"94","ObservedTime":"2020/4/9 13:55"},
{"ID":"61","Name":"盐田港东港区","SeaCoast":"深圳大鹏湾岸段","Section":"12","ForcastStation":"135","lng":"114.3118882","lat":"22.5785283","height":"5.42","珠基高程":"4.68","land":"盐田海鲜街","district":"盐田区","value":"94","ObservedTime":"2020/4/9 13:55"},
{"ID":"62","Name":"盐田港东港区","SeaCoast":"深圳大鹏湾岸段","Section":"12","ForcastStation":"136","lng":"114.3123767","lat":"22.58120428","height":"5.36","珠基高程":"4.62","land":"盐田海鲜街","district":"盐田区","value":"94","ObservedTime":"2020/4/9 13:55"},
{"ID":"63","Name":"盐田港东港区","SeaCoast":"深圳大鹏湾岸段","Section":"12","ForcastStation":"137","lng":"114.313003","lat":"22.58389587","height":"5.35","珠基高程":"4.61","land":"盐田海鲜街","district":"盐田区","value":"94","ObservedTime":"2020/4/9 13:55"},
{"ID":"64","Name":"盐田正角咀","SeaCoast":"深圳大鹏湾岸段","Section":"12","ForcastStation":"138","lng":"114.3127473","lat":"22.58664776","height":"8.68","珠基高程":"7.94","land":"梅沙海域","district":"盐田区","value":"94","ObservedTime":"2020/4/9 13:55"},
{"ID":"65","Name":"盐田正角咀","SeaCoast":"深圳大鹏湾岸段","Section":"12","ForcastStation":"139","lng":"114.313221","lat":"22.58928802","height":"9.03","珠基高程":"8.29","land":"梅沙海域","district":"盐田区","value":"93","ObservedTime":"2020/4/9 13:55"},
{"ID":"66","Name":"盐田正角咀","SeaCoast":"深圳大鹏湾岸段","Section":"12","ForcastStation":"140","lng":"114.3106678","lat":"22.59212242","height":"7.38","珠基高程":"6.64","land":"梅沙海域","district":"盐田区","value":"93","ObservedTime":"2020/4/9 13:55"},
{"ID":"67","Name":"大梅沙公园","SeaCoast":"深圳大鹏湾岸段","Section":"12","ForcastStation":"141","lng":"114.3110793","lat":"22.59455875","height":"7.21","珠基高程":"6.47","land":"梅沙海域","district":"盐田区","value":"93","ObservedTime":"2020/4/9 13:55"},
{"ID":"68","Name":"大梅沙公园","SeaCoast":"深圳大鹏湾岸段","Section":"12","ForcastStation":"142","lng":"114.3127723","lat":"22.59677092","height":"5.53","珠基高程":"4.79","land":"梅沙海域","district":"盐田区","value":"93","ObservedTime":"2020/4/9 13:55"},
{"ID":"69","Name":"大梅沙公园","SeaCoast":"深圳大鹏湾岸段","Section":"12","ForcastStation":"143","lng":"114.3142959","lat":"22.59911215","height":"5.93","珠基高程":"5.19","land":"梅沙海域","district":"盐田区","value":"93","ObservedTime":"2020/4/9 13:55"},
{"ID":"70","Name":"大梅沙公园","SeaCoast":"深圳大鹏湾岸段","Section":"12","ForcastStation":"144","lng":"114.316501","lat":"22.60078989","height":"5.56","珠基高程":"4.82","land":"梅沙海域","district":"盐田区","value":"93","ObservedTime":"2020/4/9 13:55"},
{"ID":"71","Name":"大梅沙湾游艇会","SeaCoast":"深圳大鹏湾岸段","Section":"12","ForcastStation":"145","lng":"114.3189333","lat":"22.60186833","height":"5.32","珠基高程":"4.58","land":"梅沙海域","district":"盐田区","value":"93","ObservedTime":"2020/4/9 13:55"},
{"ID":"72","Name":"大梅沙湾游艇会","SeaCoast":"深圳大鹏湾岸段","Section":"12","ForcastStation":"146","lng":"114.3185382","lat":"22.60371673","height":"4.82","珠基高程":"4.08","land":"梅沙海域","district":"盐田区","value":"93","ObservedTime":"2020/4/9 13:55"},
{"ID":"73","Name":"大梅沙湾游艇会","SeaCoast":"深圳大鹏湾岸段","Section":"12","ForcastStation":"147","lng":"114.320042","lat":"22.60169175","height":"4.86","珠基高程":"4.12","land":"梅沙海域","district":"盐田区","value":"93","ObservedTime":"2020/4/9 13:55"},
{"ID":"74","Name":"大梅沙喜来登","SeaCoast":"深圳大鹏湾岸段","Section":"12","ForcastStation":"148","lng":"114.3224941","lat":"22.60333719","height":"5.13","珠基高程":"4.39","land":"梅沙海域","district":"盐田区","value":"93","ObservedTime":"2020/4/9 13:55"},
{"ID":"75","Name":"大梅沙喜来登","SeaCoast":"深圳大鹏湾岸段","Section":"12","ForcastStation":"149","lng":"114.3249081","lat":"22.60487005","height":"6.95","珠基高程":"6.21","land":"梅沙海域","district":"盐田区","value":"93","ObservedTime":"2020/4/9 13:55"},
{"ID":"76","Name":"万科天琴湾","SeaCoast":"深圳大鹏湾岸段","Section":"12","ForcastStation":"150","lng":"114.326895","lat":"22.60304074","height":"8.45","珠基高程":"7.71","land":"梅沙海域","district":"盐田区","value":"93","ObservedTime":"2020/4/9 13:55"},
{"ID":"77","Name":"槐头岭","SeaCoast":"深圳大鹏湾岸段","Section":"12","ForcastStation":"151","lng":"114.3291908","lat":"22.60135532","height":"8.68","珠基高程":"7.94","land":"梅沙海域","district":"盐田区","value":"93","ObservedTime":"2020/4/9 13:55"},
{"ID":"78","Name":"槐头岭","SeaCoast":"深圳大鹏湾岸段","Section":"12","ForcastStation":"152","lng":"114.3333215","lat":"22.60261107","height":"9.03","珠基高程":"8.29","land":"梅沙海域","district":"盐田区","value":"93","ObservedTime":"2020/4/9 13:55"},
{"ID":"79","Name":"槐头岭","SeaCoast":"深圳大鹏湾岸段","Section":"12","ForcastStation":"153","lng":"114.3319055","lat":"22.60459821","height":"6.85","珠基高程":"6.11","land":"梅沙海域","district":"盐田区","value":"93","ObservedTime":"2020/4/9 13:55"},
{"ID":"80","Name":"小梅沙公园","SeaCoast":"深圳大鹏湾岸段","Section":"12","ForcastStation":"154","lng":"114.3339171","lat":"22.60669714","height":"6.76","珠基高程":"6.02","land":"梅沙海域","district":"盐田区","value":"93","ObservedTime":"2020/4/9 13:55"},
{"ID":"81","Name":"小梅沙公园","SeaCoast":"深圳大鹏湾岸段","Section":"12","ForcastStation":"155","lng":"114.3365568","lat":"22.60787563","height":"6.64","珠基高程":"5.9","land":"梅沙海域","district":"盐田区","value":"93","ObservedTime":"2020/4/9 13:55"},
{"ID":"82","Name":"小梅沙海关培训基地","SeaCoast":"深圳大鹏湾岸段","Section":"12","ForcastStation":"156","lng":"114.3386816","lat":"22.60881896","height":"6.68","珠基高程":"5.94","land":"梅沙海域","district":"盐田区","value":"93","ObservedTime":"2020/4/9 13:55"},
{"ID":"83","Name":"小梅沙湾","SeaCoast":"深圳大鹏湾岸段","Section":"12","ForcastStation":"157","lng":"114.341208","lat":"22.60752761","height":"7.65","珠基高程":"6.91","land":"梅沙海域","district":"盐田区","value":"93","ObservedTime":"2020/4/9 13:55"},
{"ID":"84","Name":"小梅沙湾","SeaCoast":"深圳大鹏湾岸段","Section":"12","ForcastStation":"158","lng":"114.3458355","lat":"22.60478187","height":"8.36","珠基高程":"7.62","land":"梅沙海域","district":"盐田区","value":"92","ObservedTime":"2020/4/9 13:55"},
{"ID":"85","Name":"背仔角","SeaCoast":"深圳大鹏湾岸段","Section":"12","ForcastStation":"159","lng":"114.3491405","lat":"22.59877872","height":"11.2","珠基高程":"10.5","land":"溪涌","district":"大鹏新区","value":"92","ObservedTime":"2020/4/9 13:55"},
{"ID":"86","Name":"揹仔角检查站","SeaCoast":"深圳大鹏湾岸段","Section":"12","ForcastStation":"160","lng":"114.3562517","lat":"22.60391027","height":"10.2","珠基高程":"9.49","land":"溪涌","district":"大鹏新区","value":"92","ObservedTime":"2020/4/9 13:55"},
{"ID":"87","Name":"大山","SeaCoast":"深圳大鹏湾岸段","Section":"13","ForcastStation":"161","lng":"114.3634675","lat":"22.60627906","height":"7.06","珠基高程":"6.32","land":"溪涌","district":"大鹏新区","value":"92","ObservedTime":"2020/4/9 13:55"},
{"ID":"88","Name":"大山","SeaCoast":"深圳大鹏湾岸段","Section":"13","ForcastStation":"162","lng":"114.3674023","lat":"22.60899681","height":"8.21","珠基高程":"7.47","land":"溪涌","district":"大鹏新区","value":"92","ObservedTime":"2020/4/9 13:55"},
{"ID":"89","Name":"溪涌工人度假村","SeaCoast":"深圳大鹏湾岸段","Section":"13","ForcastStation":"163","lng":"114.3664738","lat":"22.61371878","height":"5.63","珠基高程":"4.89","land":"溪涌","district":"大鹏新区","value":"92","ObservedTime":"2020/4/9 13:55"},
{"ID":"90","Name":"溪涌工人度假村","SeaCoast":"深圳大鹏湾岸段","Section":"13","ForcastStation":"164","lng":"114.3707623","lat":"22.61510333","height":"6.03","珠基高程":"5.29","land":"溪涌","district":"大鹏新区","value":"92","ObservedTime":"2020/4/9 13:55"},
{"ID":"91","Name":"牛角岭","SeaCoast":"深圳大鹏湾岸段","Section":"13","ForcastStation":"165","lng":"114.3729982","lat":"22.61334108","height":"7.24","珠基高程":"6.5","land":"溪涌","district":"大鹏新区","value":"92","ObservedTime":"2020/4/9 13:55"},
{"ID":"92","Name":"万科十七英里","SeaCoast":"深圳大鹏湾岸段","Section":"13","ForcastStation":"166","lng":"114.3773401","lat":"22.61160951","height":"9.47","珠基高程":"8.73","land":"溪涌","district":"大鹏新区","value":"92","ObservedTime":"2020/4/9 13:55"},
{"ID":"93","Name":"玫瑰海岸","SeaCoast":"深圳大鹏湾岸段","Section":"13","ForcastStation":"167","lng":"114.3810769","lat":"22.61427303","height":"5.03","珠基高程":"4.29","land":"玫瑰海岸","district":"大鹏新区","value":"92","ObservedTime":"2020/4/9 13:55"},
{"ID":"94","Name":"玫瑰海岸","SeaCoast":"深圳大鹏湾岸段","Section":"13","ForcastStation":"168","lng":"114.3838708","lat":"22.61505032","height":"4.57","珠基高程":"3.83","land":"玫瑰海岸","district":"大鹏新区","value":"92","ObservedTime":"2020/4/9 13:55"},
{"ID":"95","Name":"玫瑰海岸","SeaCoast":"深圳大鹏湾岸段","Section":"13","ForcastStation":"169","lng":"114.3866675","lat":"22.61582934","height":"5.08","珠基高程":"4.34","land":"玫瑰海岸","district":"大鹏新区","value":"92","ObservedTime":"2020/4/9 13:55"},
{"ID":"96","Name":"光汇石油码头","SeaCoast":"深圳大鹏湾岸段","Section":"13","ForcastStation":"170","lng":"114.3890637","lat":"22.61626944","height":"7.35","珠基高程":"6.61","land":"土洋","district":"大鹏新区","value":"92","ObservedTime":"2020/4/9 13:55"},
{"ID":"97","Name":"光汇石油码头","SeaCoast":"深圳大鹏湾岸段","Section":"13","ForcastStation":"171","lng":"114.3919072","lat":"22.6168595","height":"7.43","珠基高程":"6.69","land":"土洋","district":"大鹏新区","value":"92","ObservedTime":"2020/4/9 13:55"},
{"ID":"98","Name":"大鹏湾油库码头","SeaCoast":"深圳大鹏湾岸段","Section":"13","ForcastStation":"172","lng":"114.3947653","lat":"22.61701683","height":"8.16","珠基高程":"7.42","land":"土洋","district":"大鹏新区","value":"92","ObservedTime":"2020/4/9 13:55"},
{"ID":"99","Name":"华安石化码头","SeaCoast":"深圳大鹏湾岸段","Section":"13","ForcastStation":"173","lng":"114.3973309","lat":"22.61828117","height":"6.45","珠基高程":"5.71","land":"土洋","district":"大鹏新区","value":"92","ObservedTime":"2020/4/9 13:55"},
{"ID":"100","Name":"华安石化码头","SeaCoast":"深圳大鹏湾岸段","Section":"13","ForcastStation":"174","lng":"114.4003905","lat":"22.61814169","height":"9.45","珠基高程":"8.71","land":"土洋","district":"大鹏新区","value":"91","ObservedTime":"2020/4/9 13:55"},
{"ID":"101","Name":"土洋","SeaCoast":"深圳大鹏湾岸段","Section":"13","ForcastStation":"175","lng":"114.4031217","lat":"22.61755466","height":"8.43","珠基高程":"7.69","land":"土洋","district":"大鹏新区","value":"91","ObservedTime":"2020/4/9 13:55"},
{"ID":"102","Name":"土洋","SeaCoast":"深圳大鹏湾岸段","Section":"13","ForcastStation":"176","lng":"114.406012","lat":"22.61732898","height":"9.67","珠基高程":"8.93","land":"土洋","district":"大鹏新区","value":"91","ObservedTime":"2020/4/9 13:55"},
{"ID":"103","Name":"沙鱼涌港口","SeaCoast":"深圳大鹏湾岸段","Section":"13","ForcastStation":"177","lng":"114.4088695","lat":"22.61659379","height":"7.56","珠基高程":"6.82","land":"沙鱼涌","district":"大鹏新区","value":"91","ObservedTime":"2020/4/9 13:55"},
{"ID":"104","Name":"沙鱼涌港口","SeaCoast":"深圳大鹏湾岸段","Section":"13","ForcastStation":"178","lng":"114.4113487","lat":"22.6151251","height":"5.12","珠基高程":"4.38","land":"沙鱼涌","district":"大鹏新区","value":"91","ObservedTime":"2020/4/9 13:55"},
{"ID":"105","Name":"沙鱼涌港口","SeaCoast":"深圳大鹏湾岸段","Section":"13","ForcastStation":"179","lng":"114.4101409","lat":"22.6137863","height":"6.89","珠基高程":"6.15","land":"沙鱼涌","district":"大鹏新区","value":"91","ObservedTime":"2020/4/9 13:55"},
{"ID":"106","Name":"沙鱼涌港口","SeaCoast":"深圳大鹏湾岸段","Section":"13","ForcastStation":"180","lng":"114.4130209","lat":"22.61421989","height":"6.08","珠基高程":"5.34","land":"沙鱼涌","district":"大鹏新区","value":"91","ObservedTime":"2020/4/9 13:55"},
{"ID":"107","Name":"沙鱼涌港口","SeaCoast":"深圳大鹏湾岸段","Section":"13","ForcastStation":"181","lng":"114.415951","lat":"22.61426859","height":"9.18","珠基高程":"8.44","land":"沙鱼涌","district":"大鹏新区","value":"91","ObservedTime":"2020/4/9 13:55"},
{"ID":"108","Name":"沙鱼涌港口","SeaCoast":"深圳大鹏湾岸段","Section":"13","ForcastStation":"182","lng":"114.4188617","lat":"22.61440235","height":"8.17","珠基高程":"7.43","land":"沙鱼涌","district":"大鹏新区","value":"91","ObservedTime":"2020/4/9 13:55"},
{"ID":"109","Name":"沙鱼涌河口","SeaCoast":"深圳大鹏湾岸段","Section":"13","ForcastStation":"183","lng":"114.4210338","lat":"22.61516993","height":"8.71","珠基高程":"7.97","land":"沙鱼涌","district":"大鹏新区","value":"91","ObservedTime":"2020/4/9 13:55"},
{"ID":"110","Name":"沙鱼涌河口","SeaCoast":"深圳大鹏湾岸段","Section":"13","ForcastStation":"184","lng":"114.4241811","lat":"22.61701124","height":"7.63","珠基高程":"6.89","land":"沙鱼涌","district":"大鹏新区","value":"91","ObservedTime":"2020/4/9 13:55"},
{"ID":"111","Name":"东江纵队北上抗日纪念处","SeaCoast":"深圳大鹏湾岸段","Section":"13","ForcastStation":"185","lng":"114.4219328","lat":"22.61393054","height":"5.84","珠基高程":"5.1","land":"沙鱼涌","district":"大鹏新区","value":"91","ObservedTime":"2020/4/9 13:55"},
{"ID":"112","Name":"沙鱼涌游泳场","SeaCoast":"深圳大鹏湾岸段","Section":"13","ForcastStation":"186","lng":"114.4242258","lat":"22.61276952","height":"6.28","珠基高程":"5.54","land":"沙鱼涌","district":"大鹏新区","value":"91","ObservedTime":"2020/4/9 13:55"},
{"ID":"113","Name":"官湖角","SeaCoast":"深圳大鹏湾岸段","Section":"13","ForcastStation":"187","lng":"114.4250786","lat":"22.60792057","height":"9.63","珠基高程":"8.89","land":"官湖","district":"大鹏新区","value":"91","ObservedTime":"2020/4/9 13:55"},
{"ID":"114","Name":"龙岗官湖","SeaCoast":"深圳大鹏湾岸段","Section":"13","ForcastStation":"188","lng":"114.4266113","lat":"22.60864722","height":"7.36","珠基高程":"6.62","land":"官湖","district":"大鹏新区","value":"91","ObservedTime":"2020/4/9 13:55"},
{"ID":"115","Name":"龙岗官湖","SeaCoast":"深圳大鹏湾岸段","Section":"13","ForcastStation":"189","lng":"114.4294468","lat":"22.60799712","height":"5.15","珠基高程":"4.41","land":"官湖","district":"大鹏新区","value":"91","ObservedTime":"2020/4/9 13:55"},
{"ID":"116","Name":"葵涌街道官湖社区公园","SeaCoast":"深圳大鹏湾岸段","Section":"13","ForcastStation":"190","lng":"114.4324175","lat":"22.607445","height":"6.58","珠基高程":"5.84","land":"官湖","district":"大鹏新区","value":"91","ObservedTime":"2020/4/9 13:55"},
{"ID":"117","Name":"深圳金龙漂染有限公司","SeaCoast":"深圳大鹏湾岸段","Section":"14","ForcastStation":"191","lng":"114.436961","lat":"22.60577604","height":"6.53","珠基高程":"5.79","land":"官湖","district":"大鹏新区","value":"91","ObservedTime":"2020/4/9 13:55"},
{"ID":"118","Name":"迭福山","SeaCoast":"深圳大鹏湾岸段","Section":"14","ForcastStation":"192","lng":"114.4386622","lat":"22.60436413","height":"9.56","珠基高程":"8.82","land":"官湖","district":"大鹏新区","value":"91","ObservedTime":"2020/4/9 13:55"},
{"ID":"119","Name":"迭福山","SeaCoast":"深圳大鹏湾岸段","Section":"14","ForcastStation":"193","lng":"114.4404949","lat":"22.60028957","height":"7.39","珠基高程":"6.65","land":"官湖","district":"大鹏新区","value":"90","ObservedTime":"2020/4/9 13:55"},
{"ID":"120","Name":"迭福山","SeaCoast":"深圳大鹏湾岸段","Section":"14","ForcastStation":"194","lng":"114.4430453","lat":"22.59665387","height":"8.67","珠基高程":"7.93","land":"官湖","district":"大鹏新区","value":"90","ObservedTime":"2020/4/9 13:55"},
{"ID":"121","Name":"大通电路板厂","SeaCoast":"深圳大鹏湾岸段","Section":"14","ForcastStation":"195","lng":"114.4451953","lat":"22.59265847","height":"8.73","珠基高程":"7.99","land":"金沙湾","district":"大鹏新区","value":"90","ObservedTime":"2020/4/9 13:55"},
{"ID":"122","Name":"大庆游艇公司","SeaCoast":"深圳大鹏湾岸段","Section":"14","ForcastStation":"196","lng":"114.4469368","lat":"22.59051935","height":"4.3","珠基高程":"3.56","land":"金沙湾","district":"大鹏新区","value":"90","ObservedTime":"2020/4/9 13:55"},
{"ID":"123","Name":"大庆游艇公司","SeaCoast":"深圳大鹏湾岸段","Section":"14","ForcastStation":"197","lng":"114.4480716","lat":"22.58803306","height":"4.26","珠基高程":"3.52","land":"金沙湾","district":"大鹏新区","value":"90","ObservedTime":"2020/4/9 13:55"},
{"ID":"124","Name":"深圳东部电厂","SeaCoast":"深圳大鹏湾岸段","Section":"14","ForcastStation":"198","lng":"114.445801","lat":"22.58652467","height":"5.43","珠基高程":"4.69","land":"金沙湾","district":"大鹏新区","value":"90","ObservedTime":"2020/4/9 13:55"},
{"ID":"125","Name":"深圳东部电厂","SeaCoast":"深圳大鹏湾岸段","Section":"14","ForcastStation":"199","lng":"114.4452304","lat":"22.58404944","height":"5.62","珠基高程":"4.88","land":"金沙湾","district":"大鹏新区","value":"90","ObservedTime":"2020/4/9 13:55"},
{"ID":"126","Name":"广东大鹏液化天然气有限公司","SeaCoast":"深圳大鹏湾岸段","Section":"14","ForcastStation":"200","lng":"114.4442846","lat":"22.58022079","height":"5.51","珠基高程":"4.77","land":"金沙湾","district":"大鹏新区","value":"90","ObservedTime":"2020/4/9 13:55"},
{"ID":"127","Name":"广东大鹏液化天然气有限公司","SeaCoast":"深圳大鹏湾岸段","Section":"14","ForcastStation":"201","lng":"114.4468002","lat":"22.57891013","height":"9.83","珠基高程":"9.09","land":"金沙湾","district":"大鹏新区","value":"90","ObservedTime":"2020/4/9 13:55"},
{"ID":"128","Name":"广东大鹏液化天然气有限公司","SeaCoast":"深圳大鹏湾岸段","Section":"14","ForcastStation":"202","lng":"114.4497859","lat":"22.57734578","height":"9.78","珠基高程":"9.04","land":"金沙湾","district":"大鹏新区","value":"90","ObservedTime":"2020/4/9 13:55"},
{"ID":"129","Name":"秤头角","SeaCoast":"深圳大鹏湾岸段","Section":"14","ForcastStation":"203","lng":"114.4502307","lat":"22.57466845","height":"9.34","珠基高程":"8.6","land":"金沙湾","district":"大鹏新区","value":"90","ObservedTime":"2020/4/9 13:55"},
{"ID":"130","Name":"秤头角","SeaCoast":"深圳大鹏湾岸段","Section":"14","ForcastStation":"204","lng":"114.4526456","lat":"22.57460653","height":"6.58","珠基高程":"5.84","land":"金沙湾","district":"大鹏新区","value":"89","ObservedTime":"2020/4/9 13:55"},
{"ID":"131","Name":"碧海湾海景区","SeaCoast":"深圳大鹏湾岸段","Section":"14","ForcastStation":"205","lng":"114.4556292","lat":"22.57452884","height":"6.67","珠基高程":"5.93","land":"金沙湾","district":"大鹏新区","value":"89","ObservedTime":"2020/4/9 13:55"},
{"ID":"132","Name":"碧海湾海景区","SeaCoast":"深圳大鹏湾岸段","Section":"14","ForcastStation":"206","lng":"114.4584195","lat":"22.57482221","height":"7.92","珠基高程":"7.18","land":"金沙湾","district":"大鹏新区","value":"89","ObservedTime":"2020/4/9 13:55"},
{"ID":"133","Name":"碧海湾海上运动俱乐部","SeaCoast":"深圳大鹏湾岸段","Section":"14","ForcastStation":"207","lng":"114.4613208","lat":"22.57483245","height":"7.68","珠基高程":"6.94","land":"金沙湾","district":"大鹏新区","value":"89","ObservedTime":"2020/4/9 13:55"},
{"ID":"134","Name":"碧海湾海上运动俱乐部","SeaCoast":"深圳大鹏湾岸段","Section":"14","ForcastStation":"208","lng":"114.4645434","lat":"22.57502399","height":"6.68","珠基高程":"5.94","land":"金沙湾","district":"大鹏新区","value":"89","ObservedTime":"2020/4/9 13:55"},
{"ID":"135","Name":"碧海湾海上运动俱乐部","SeaCoast":"深圳大鹏湾岸段","Section":"14","ForcastStation":"209","lng":"114.4670321","lat":"22.57447894","height":"7.71","珠基高程":"6.97","land":"金沙湾","district":"大鹏新区","value":"89","ObservedTime":"2020/4/9 13:55"},
{"ID":"136","Name":"碧海湾海上运动俱乐部","SeaCoast":"深圳大鹏湾岸段","Section":"14","ForcastStation":"210","lng":"114.4698196","lat":"22.57377352","height":"5.93","珠基高程":"5.19","land":"金沙湾","district":"大鹏新区","value":"89","ObservedTime":"2020/4/9 13:55"},
{"ID":"137","Name":"山海湾俱乐部","SeaCoast":"深圳大鹏湾岸段","Section":"14","ForcastStation":"211","lng":"114.4710167","lat":"22.57209306","height":"8.32","珠基高程":"7.58","land":"金沙湾","district":"大鹏新区","value":"89","ObservedTime":"2020/4/9 13:55"},
{"ID":"138","Name":"名墅海景度假村","SeaCoast":"深圳大鹏湾岸段","Section":"14","ForcastStation":"212","lng":"114.4715706","lat":"22.56829142","height":"4.96","珠基高程":"4.22","land":"金沙湾","district":"大鹏新区","value":"89","ObservedTime":"2020/4/9 13:55"},
{"ID":"139","Name":"龙岗区干部疗养院","SeaCoast":"深圳大鹏湾岸段","Section":"14","ForcastStation":"213","lng":"114.4738768","lat":"22.56630966","height":"7.27","珠基高程":"6.53","land":"金沙湾","district":"大鹏新区","value":"89","ObservedTime":"2020/4/9 13:55"},
{"ID":"140","Name":"洲仔头","SeaCoast":"深圳大鹏湾岸段","Section":"14","ForcastStation":"214","lng":"114.4736575","lat":"22.5641657","height":"8.03","珠基高程":"7.29","land":"金沙湾","district":"大鹏新区","value":"89","ObservedTime":"2020/4/9 13:55"},
{"ID":"141","Name":"云海山庄","SeaCoast":"深圳大鹏湾岸段","Section":"14","ForcastStation":"215","lng":"114.4733396","lat":"22.56236951","height":"5.37","珠基高程":"4.63","land":"金沙湾","district":"大鹏新区","value":"89","ObservedTime":"2020/4/9 13:55"},
{"ID":"142","Name":"云海山庄","SeaCoast":"深圳大鹏湾岸段","Section":"14","ForcastStation":"216","lng":"114.4741523","lat":"22.56149676","height":"6.26","珠基高程":"5.52","land":"金沙湾","district":"大鹏新区","value":"89","ObservedTime":"2020/4/9 13:55"},
{"ID":"143","Name":"英管岭","SeaCoast":"深圳大鹏湾岸段","Section":"14","ForcastStation":"217","lng":"114.474786","lat":"22.56003482","height":"7.23","珠基高程":"6.49","land":"南澳渔港","district":"大鹏新区","value":"89","ObservedTime":"2020/4/9 13:55"},
{"ID":"144","Name":"英管岭","SeaCoast":"深圳大鹏湾岸段","Section":"14","ForcastStation":"218","lng":"114.477998","lat":"22.55683843","height":"6.87","珠基高程":"6.13","land":"南澳渔港","district":"大鹏新区","value":"89","ObservedTime":"2020/4/9 13:55"},
{"ID":"145","Name":"英管岭","SeaCoast":"深圳大鹏湾岸段","Section":"14","ForcastStation":"219","lng":"114.4807787","lat":"22.55296749","height":"6.82","珠基高程":"6.08","land":"南澳渔港","district":"大鹏新区","value":"89","ObservedTime":"2020/4/9 13:55"},
{"ID":"146","Name":"海域金湾","SeaCoast":"深圳大鹏湾岸段","Section":"15","ForcastStation":"220","lng":"114.4834048","lat":"22.554199","height":"4.87","珠基高程":"4.13","land":"南澳渔港","district":"大鹏新区","value":"88","ObservedTime":"2020/4/9 13:55"},
{"ID":"147","Name":"海域金湾","SeaCoast":"深圳大鹏湾岸段","Section":"15","ForcastStation":"221","lng":"114.4862372","lat":"22.55367801","height":"5.58","珠基高程":"4.84","land":"南澳渔港","district":"大鹏新区","value":"88","ObservedTime":"2020/4/9 13:55"},
{"ID":"148","Name":"福源宾馆","SeaCoast":"深圳大鹏湾岸段","Section":"15","ForcastStation":"222","lng":"114.4890573","lat":"22.55254205","height":"5.27","珠基高程":"4.53","land":"南澳渔港","district":"大鹏新区","value":"88","ObservedTime":"2020/4/9 13:55"},
{"ID":"149","Name":"凯旋湾","SeaCoast":"深圳大鹏湾岸段","Section":"15","ForcastStation":"223","lng":"114.4897193","lat":"22.54990284","height":"5.16","珠基高程":"4.42","land":"南澳渔港","district":"大鹏新区","value":"88","ObservedTime":"2020/4/9 13:55"},
{"ID":"150","Name":"凯旋湾","SeaCoast":"深圳大鹏湾岸段","Section":"15","ForcastStation":"224","lng":"114.4910208","lat":"22.54837956","height":"4.96","珠基高程":"4.22","land":"南澳渔港","district":"大鹏新区","value":"88","ObservedTime":"2020/4/9 13:55"},
{"ID":"151","Name":"巴厘岛海景酒店","SeaCoast":"深圳大鹏湾岸段","Section":"15","ForcastStation":"225","lng":"114.4894293","lat":"22.54543677","height":"7.39","珠基高程":"6.65","land":"南澳渔港","district":"大鹏新区","value":"88","ObservedTime":"2020/4/9 13:55"},
{"ID":"152","Name":"巴厘岛海景酒店","SeaCoast":"深圳大鹏湾岸段","Section":"15","ForcastStation":"226","lng":"114.4920876","lat":"22.54329504","height":"6.53","珠基高程":"5.79","land":"南澳渔港","district":"大鹏新区","value":"88","ObservedTime":"2020/4/9 13:55"},
{"ID":"153","Name":"南澳月亮湾广场","SeaCoast":"深圳大鹏湾岸段","Section":"15","ForcastStation":"227","lng":"114.4946732","lat":"22.54202896","height":"5.52","珠基高程":"4.78","land":"南澳渔港","district":"大鹏新区","value":"88","ObservedTime":"2020/4/9 13:55"},
{"ID":"154","Name":"南澳渔港","SeaCoast":"深圳大鹏湾岸段","Section":"15","ForcastStation":"228","lng":"114.4970419","lat":"22.54048827","height":"6.45","珠基高程":"5.71","land":"南澳渔港","district":"大鹏新区","value":"88","ObservedTime":"2020/4/9 13:55"},
{"ID":"155","Name":"南澳渔港","SeaCoast":"深圳大鹏湾岸段","Section":"15","ForcastStation":"229","lng":"114.4979497","lat":"22.53902096","height":"4.18","珠基高程":"3.44","land":"南澳渔港","district":"大鹏新区","value":"88","ObservedTime":"2020/4/9 13:55"},
{"ID":"156","Name":"南澳双拥码头","SeaCoast":"深圳大鹏湾岸段","Section":"15","ForcastStation":"230","lng":"114.4956135","lat":"22.53758531","height":"4.34","珠基高程":"3.6","land":"南澳渔港","district":"大鹏新区","value":"88","ObservedTime":"2020/4/9 13:55"},
{"ID":"157","Name":"南澳晒鱼场","SeaCoast":"深圳大鹏湾岸段","Section":"15","ForcastStation":"231","lng":"114.495957","lat":"22.53489144","height":"4.46","珠基高程":"3.72","land":"南澳渔港","district":"大鹏新区","value":"88","ObservedTime":"2020/4/9 13:55"},
{"ID":"158","Name":"南澳富民路","SeaCoast":"深圳大鹏湾岸段","Section":"15","ForcastStation":"232","lng":"114.4966506","lat":"22.53227848","height":"9.21","珠基高程":"8.47","land":"南澳渔港","district":"大鹏新区","value":"88","ObservedTime":"2020/4/9 13:55"},
{"ID":"159","Name":"南澳富民路","SeaCoast":"深圳大鹏湾岸段","Section":"15","ForcastStation":"233","lng":"114.4974938","lat":"22.52968626","height":"6.73","珠基高程":"5.99","land":"南澳渔港","district":"大鹏新区","value":"88","ObservedTime":"2020/4/9 13:55"},
{"ID":"160","Name":"南澳富民路","SeaCoast":"深圳大鹏湾岸段","Section":"15","ForcastStation":"234","lng":"114.4967698","lat":"22.52703362","height":"4.63","珠基高程":"3.89","land":"南澳渔港","district":"大鹏新区","value":"88","ObservedTime":"2020/4/9 13:55"},
{"ID":"161","Name":"黎洞山脚","SeaCoast":"深圳大鹏湾岸段","Section":"15","ForcastStation":"235","lng":"114.494074","lat":"22.52637774","height":"8.37","珠基高程":"7.63","land":"南澳渔港","district":"大鹏新区","value":"88","ObservedTime":"2020/4/9 13:55"},
{"ID":"162","Name":"黎洞山脚","SeaCoast":"深圳大鹏湾岸段","Section":"15","ForcastStation":"236","lng":"114.4928437","lat":"22.52386021","height":"7.36","珠基高程":"6.62","land":"南澳渔港","district":"大鹏新区","value":"88","ObservedTime":"2020/4/9 13:55"},
{"ID":"163","Name":"黎洞山脚","SeaCoast":"深圳大鹏湾岸段","Section":"15","ForcastStation":"237","lng":"114.4936263","lat":"22.52127564","height":"5.93","珠基高程":"5.19","land":"南澳渔港","district":"大鹏新区","value":"88","ObservedTime":"2020/4/9 13:55"},
{"ID":"164","Name":"黎洞山脚","SeaCoast":"深圳大鹏湾岸段","Section":"15","ForcastStation":"238","lng":"114.4932341","lat":"22.51955995","height":"25.8","珠基高程":"25","land":"南澳渔港","district":"大鹏新区","value":"88","ObservedTime":"2020/4/9 13:55"},
{"ID":"165","Name":"黎洞山脚","SeaCoast":"深圳大鹏湾岸段","Section":"15","ForcastStation":"239","lng":"114.4907473","lat":"22.51753318","height":"8.37","珠基高程":"7.63","land":"南澳渔港","district":"大鹏新区","value":"88","ObservedTime":"2020/4/9 13:55"},
{"ID":"166","Name":"南澳洋畴湾花园","SeaCoast":"深圳大鹏湾岸段","Section":"15","ForcastStation":"240","lng":"114.4875481","lat":"22.51652887","height":"8.03","珠基高程":"7.29","land":"南澳渔港","district":"大鹏新区","value":"88","ObservedTime":"2020/4/9 13:55"},
{"ID":"167","Name":"南澳洋畴湾花园","SeaCoast":"深圳大鹏湾岸段","Section":"15","ForcastStation":"241","lng":"114.4887646","lat":"22.51503655","height":"7.15","珠基高程":"6.41","land":"南澳渔港","district":"大鹏新区","value":"88","ObservedTime":"2020/4/9 13:55"},
{"ID":"168","Name":"南澳边防工作站雷达观通哨","SeaCoast":"深圳大鹏湾岸段","Section":"15","ForcastStation":"242","lng":"114.4882564","lat":"22.51149248","height":"7.31","珠基高程":"6.57","land":"南澳渔港","district":"大鹏新区","value":"88","ObservedTime":"2020/4/9 13:55"},
{"ID":"169","Name":"抛狗岭山脚","SeaCoast":"深圳大鹏湾岸段","Section":"15","ForcastStation":"243","lng":"114.4917545","lat":"22.50699469","height":"7.89","珠基高程":"7.15","land":"东西涌","district":"大鹏新区","value":"88","ObservedTime":"2020/4/9 13:55"},
{"ID":"170","Name":"抛狗岭山脚","SeaCoast":"深圳大鹏湾岸段","Section":"15","ForcastStation":"244","lng":"114.4913854","lat":"22.50182091","height":"6.23","珠基高程":"5.49","land":"东西涌","district":"大鹏新区","value":"88","ObservedTime":"2020/4/9 13:55"},
{"ID":"171","Name":"抛狗岭山脚","SeaCoast":"深圳大鹏湾岸段","Section":"15","ForcastStation":"245","lng":"114.4910538","lat":"22.49707612","height":"6.68","珠基高程":"5.94","land":"东西涌","district":"大鹏新区","value":"88","ObservedTime":"2020/4/9 13:55"},
{"ID":"172","Name":"旭联海洋生物养殖基地","SeaCoast":"深圳大鹏湾岸段","Section":"15","ForcastStation":"246","lng":"114.4968313","lat":"22.49533282","height":"6.83","珠基高程":"6.09","land":"东西涌","district":"大鹏新区","value":"88","ObservedTime":"2020/4/9 13:55"},
{"ID":"173","Name":"旭联海洋生物养殖基地","SeaCoast":"深圳大鹏湾岸段","Section":"15","ForcastStation":"247","lng":"114.4980331","lat":"22.4924475","height":"7.08","珠基高程":"6.34","land":"东西涌","district":"大鹏新区","value":"88","ObservedTime":"2020/4/9 13:55"},
{"ID":"174","Name":"鹅公湾山脚","SeaCoast":"深圳大鹏湾岸段","Section":"16","ForcastStation":"248","lng":"114.4957651","lat":"22.49077973","height":"7.26","珠基高程":"6.52","land":"东西涌","district":"大鹏新区","value":"87","ObservedTime":"2020/4/9 13:55"},
{"ID":"175","Name":"柚柑湾度假村山脚","SeaCoast":"深圳大鹏湾岸段","Section":"16","ForcastStation":"249","lng":"114.4955997","lat":"22.48380734","height":"7.67","珠基高程":"6.93","land":"东西涌","district":"大鹏新区","value":"87","ObservedTime":"2020/4/9 13:55"},
{"ID":"176","Name":"大鹏半岛红花岭山脚","SeaCoast":"深圳大鹏湾岸段","Section":"16","ForcastStation":"250","lng":"114.4942523","lat":"22.47671109","height":"6.89","珠基高程":"6.15","land":"东西涌","district":"大鹏新区","value":"87","ObservedTime":"2020/4/9 13:55"},
{"ID":"177","Name":"大鹏半岛红花岭山脚","SeaCoast":"深圳大鹏湾岸段","Section":"16","ForcastStation":"251","lng":"114.4978159","lat":"22.47231752","height":"7.82","珠基高程":"7.08","land":"东西涌","district":"大鹏新区","value":"87","ObservedTime":"2020/4/9 13:55"},
{"ID":"178","Name":"大鹏半岛红花岭山脚","SeaCoast":"深圳大鹏湾岸段","Section":"16","ForcastStation":"252","lng":"114.5058656","lat":"22.47063728","height":"6.89","珠基高程":"6.15","land":"东西涌","district":"大鹏新区","value":"86","ObservedTime":"2020/4/9 13:55"},
{"ID":"179","Name":"大鹏半岛头崖山脚","SeaCoast":"深圳大鹏湾岸段","Section":"16","ForcastStation":"253","lng":"114.5075826","lat":"22.46422229","height":"7.03","珠基高程":"6.29","land":"东西涌","district":"大鹏新区","value":"86","ObservedTime":"2020/4/9 13:55"},
{"ID":"180","Name":"大鹏半岛头崖山脚","SeaCoast":"深圳大鹏湾岸段","Section":"16","ForcastStation":"254","lng":"114.5071003","lat":"22.45833985","height":"8.36","珠基高程":"7.62","land":"东西涌","district":"大鹏新区","value":"86","ObservedTime":"2020/4/9 13:55"},
{"ID":"181","Name":"大鹏半岛头崖山脚","SeaCoast":"深圳大鹏湾岸段","Section":"16","ForcastStation":"255","lng":"114.5129006","lat":"22.45416075","height":"8.23","珠基高程":"7.49","land":"东西涌","district":"大鹏新区","value":"86","ObservedTime":"2020/4/9 13:55"},
{"ID":"182","Name":"大鹏半岛磨刀坑山脚","SeaCoast":"深圳大鹏湾岸段","Section":"16","ForcastStation":"256","lng":"114.5221213","lat":"22.4555023","height":"6.78","珠基高程":"6.04","land":"东西涌","district":"大鹏新区","value":"86","ObservedTime":"2020/4/9 13:55"},
{"ID":"183","Name":"大鹏半岛牛奶牌山脚","SeaCoast":"深圳大亚湾岸段","Section":"16","ForcastStation":"257","lng":"114.528348","lat":"22.45682632","height":"8.63","珠基高程":"7.89","land":"东西涌","district":"大鹏新区","value":"86","ObservedTime":"2020/4/9 13:55"},
{"ID":"184","Name":"大鹏半岛尖顶峰山脚","SeaCoast":"深圳大亚湾岸段","Section":"16","ForcastStation":"258","lng":"114.5309166","lat":"22.4609648","height":"7.68","珠基高程":"6.94","land":"东西涌","district":"大鹏新区","value":"86","ObservedTime":"2020/4/9 13:55"},
{"ID":"185","Name":"大鹏半岛尖顶峰山脚","SeaCoast":"深圳大亚湾岸段","Section":"16","ForcastStation":"259","lng":"114.5350375","lat":"22.46397256","height":"6.98","珠基高程":"6.24","land":"东西涌","district":"大鹏新区","value":"86","ObservedTime":"2020/4/9 13:55"},
{"ID":"186","Name":"大鹏半岛尖顶峰山脚","SeaCoast":"深圳大亚湾岸段","Section":"16","ForcastStation":"260","lng":"114.5403363","lat":"22.46808728","height":"7.87","珠基高程":"7.13","land":"东西涌","district":"大鹏新区","value":"86","ObservedTime":"2020/4/9 13:55"},
{"ID":"187","Name":"西涌","SeaCoast":"深圳大亚湾岸段","Section":"16","ForcastStation":"261","lng":"114.5347462","lat":"22.47023645","height":"7.06","珠基高程":"6.32","land":"东西涌","district":"大鹏新区","value":"86","ObservedTime":"2020/4/9 13:55"},
{"ID":"188","Name":"西涌","SeaCoast":"深圳大亚湾岸段","Section":"16","ForcastStation":"262","lng":"114.537078","lat":"22.47025225","height":"7.13","珠基高程":"6.39","land":"东西涌","district":"大鹏新区","value":"86","ObservedTime":"2020/4/9 13:55"},
{"ID":"189","Name":"西涌","SeaCoast":"深圳大亚湾岸段","Section":"16","ForcastStation":"263","lng":"114.5368012","lat":"22.47294385","height":"7.61","珠基高程":"6.87","land":"东西涌","district":"大鹏新区","value":"86","ObservedTime":"2020/4/9 13:55"},
{"ID":"190","Name":"西涌","SeaCoast":"深圳大亚湾岸段","Section":"16","ForcastStation":"264","lng":"114.5378067","lat":"22.47547317","height":"6.03","珠基高程":"5.29","land":"东西涌","district":"大鹏新区","value":"86","ObservedTime":"2020/4/9 13:55"},
{"ID":"191","Name":"西涌","SeaCoast":"深圳大亚湾岸段","Section":"16","ForcastStation":"265","lng":"114.5397774","lat":"22.47744723","height":"7.85","珠基高程":"7.11","land":"东西涌","district":"大鹏新区","value":"86","ObservedTime":"2020/4/9 13:55"},
{"ID":"192","Name":"西涌","SeaCoast":"深圳大亚湾岸段","Section":"16","ForcastStation":"266","lng":"114.5419048","lat":"22.47928752","height":"5.67","珠基高程":"4.93","land":"东西涌","district":"大鹏新区","value":"86","ObservedTime":"2020/4/9 13:55"},
{"ID":"193","Name":"西涌","SeaCoast":"深圳大亚湾岸段","Section":"16","ForcastStation":"267","lng":"114.5437385","lat":"22.48130787","height":"5.81","珠基高程":"5.07","land":"东西涌","district":"大鹏新区","value":"86","ObservedTime":"2020/4/9 13:55"},
{"ID":"194","Name":"西涌","SeaCoast":"深圳大亚湾岸段","Section":"16","ForcastStation":"268","lng":"114.5461698","lat":"22.48279818","height":"7.82","珠基高程":"7.08","land":"东西涌","district":"大鹏新区","value":"86","ObservedTime":"2020/4/9 13:55"},
{"ID":"195","Name":"西涌","SeaCoast":"深圳大亚湾岸段","Section":"16","ForcastStation":"269","lng":"114.548457","lat":"22.48440415","height":"8.63","珠基高程":"7.89","land":"东西涌","district":"大鹏新区","value":"86","ObservedTime":"2020/4/9 13:55"},
{"ID":"196","Name":"西涌","SeaCoast":"深圳大亚湾岸段","Section":"16","ForcastStation":"270","lng":"114.5509785","lat":"22.48580194","height":"7.63","珠基高程":"6.89","land":"东西涌","district":"大鹏新区","value":"86","ObservedTime":"2020/4/9 13:55"},
{"ID":"197","Name":"西涌","SeaCoast":"深圳大亚湾岸段","Section":"16","ForcastStation":"271","lng":"114.5538353","lat":"22.48710223","height":"5.66","珠基高程":"4.92","land":"东西涌","district":"大鹏新区","value":"86","ObservedTime":"2020/4/9 13:55"},
{"ID":"198","Name":"西涌","SeaCoast":"深圳大亚湾岸段","Section":"16","ForcastStation":"272","lng":"114.5580384","lat":"22.4878745","height":"6.13","珠基高程":"5.39","land":"东西涌","district":"大鹏新区","value":"86","ObservedTime":"2020/4/9 13:55"},
{"ID":"199","Name":"大鹏半岛崖头顶山脚","SeaCoast":"深圳大亚湾岸段","Section":"16","ForcastStation":"273","lng":"114.5609138","lat":"22.48586501","height":"7.36","珠基高程":"6.62","land":"东西涌","district":"大鹏新区","value":"86","ObservedTime":"2020/4/9 13:55"},
{"ID":"200","Name":"大鹏半岛崖头顶山脚","SeaCoast":"深圳大亚湾岸段","Section":"16","ForcastStation":"274","lng":"114.5660112","lat":"22.48182414","height":"7.42","珠基高程":"6.68","land":"东西涌","district":"大鹏新区","value":"86","ObservedTime":"2020/4/9 13:55"},
{"ID":"201","Name":"大鹏半岛崖头顶山脚","SeaCoast":"深圳大亚湾岸段","Section":"16","ForcastStation":"275","lng":"114.5715061","lat":"22.48415839","height":"6.89","珠基高程":"6.15","land":"东西涌","district":"大鹏新区","value":"86","ObservedTime":"2020/4/9 13:55"},
{"ID":"202","Name":"大鹏半岛鬼仔角山脚","SeaCoast":"深圳大亚湾岸段","Section":"16","ForcastStation":"276","lng":"114.5754038","lat":"22.48763944","height":"7.03","珠基高程":"6.29","land":"东西涌","district":"大鹏新区","value":"86","ObservedTime":"2020/4/9 13:55"},
{"ID":"203","Name":"大鹏半岛鬼仔角山脚","SeaCoast":"深圳大亚湾岸段","Section":"17","ForcastStation":"277","lng":"114.5812866","lat":"22.48919399","height":"8.01","珠基高程":"7.27","land":"东西涌","district":"大鹏新区","value":"86","ObservedTime":"2020/4/9 13:55"},
{"ID":"204","Name":"大鹏半岛鬼仔角山脚","SeaCoast":"深圳大亚湾岸段","Section":"17","ForcastStation":"278","lng":"114.5888669","lat":"22.49030075","height":"7.65","珠基高程":"6.91","land":"东西涌","district":"大鹏新区","value":"86","ObservedTime":"2020/4/9 13:55"},
{"ID":"205","Name":"东涌","SeaCoast":"深圳大亚湾岸段","Section":"17","ForcastStation":"279","lng":"114.5885169","lat":"22.49278395","height":"5.26","珠基高程":"4.52","land":"东西涌","district":"大鹏新区","value":"86","ObservedTime":"2020/4/9 13:55"},
{"ID":"206","Name":"东涌","SeaCoast":"深圳大亚湾岸段","Section":"17","ForcastStation":"280","lng":"114.590126","lat":"22.49476248","height":"5.82","珠基高程":"5.08","land":"东西涌","district":"大鹏新区","value":"86","ObservedTime":"2020/4/9 13:55"},
{"ID":"207","Name":"东涌","SeaCoast":"深圳大亚湾岸段","Section":"17","ForcastStation":"281","lng":"114.5919389","lat":"22.49688973","height":"5.12","珠基高程":"4.38","land":"东西涌","district":"大鹏新区","value":"86","ObservedTime":"2020/4/9 13:55"},
{"ID":"208","Name":"大鹏半岛东角山脚","SeaCoast":"深圳大亚湾岸段","Section":"17","ForcastStation":"282","lng":"114.5954383","lat":"22.49700394","height":"7.86","珠基高程":"7.12","land":"东西涌","district":"大鹏新区","value":"86","ObservedTime":"2020/4/9 13:55"},
{"ID":"209","Name":"大鹏半岛东角山脚","SeaCoast":"深圳大亚湾岸段","Section":"17","ForcastStation":"283","lng":"114.6023775","lat":"22.49551262","height":"6.87","珠基高程":"6.13","land":"东西涌","district":"大鹏新区","value":"85","ObservedTime":"2020/4/9 13:55"},
{"ID":"210","Name":"大鹏半岛东角山脚","SeaCoast":"深圳大亚湾岸段","Section":"17","ForcastStation":"284","lng":"114.603877","lat":"22.49928643","height":"7.65","珠基高程":"6.91","land":"东西涌","district":"大鹏新区","value":"85","ObservedTime":"2020/4/9 13:55"},
{"ID":"211","Name":"大鹏半岛东角山脚","SeaCoast":"深圳大亚湾岸段","Section":"17","ForcastStation":"285","lng":"114.6084183","lat":"22.50046748","height":"7.45","珠基高程":"6.71","land":"东西涌","district":"大鹏新区","value":"85","ObservedTime":"2020/4/9 13:55"},
{"ID":"212","Name":"大鹏半岛高排山脚","SeaCoast":"深圳大亚湾岸段","Section":"17","ForcastStation":"286","lng":"114.6132214","lat":"22.50121462","height":"7.36","珠基高程":"6.62","land":"东西涌","district":"大鹏新区","value":"85","ObservedTime":"2020/4/9 13:55"},
{"ID":"213","Name":"大鹏半岛长角山脚","SeaCoast":"深圳大亚湾岸段","Section":"17","ForcastStation":"287","lng":"114.6205157","lat":"22.50090538","height":"6.98","珠基高程":"6.24","land":"东西涌","district":"大鹏新区","value":"85","ObservedTime":"2020/4/9 13:55"},
{"ID":"214","Name":"大鹏半岛长角山脚","SeaCoast":"深圳大亚湾岸段","Section":"17","ForcastStation":"288","lng":"114.6226184","lat":"22.50552058","height":"6.68","珠基高程":"5.94","land":"东西涌","district":"大鹏新区","value":"85","ObservedTime":"2020/4/9 13:55"},
{"ID":"215","Name":"大鹏半岛海柴角山脚","SeaCoast":"深圳大亚湾岸段","Section":"17","ForcastStation":"289","lng":"114.6280461","lat":"22.5101805","height":"8.61","珠基高程":"7.87","land":"东西涌","district":"大鹏新区","value":"85","ObservedTime":"2020/4/9 13:55"},
{"ID":"216","Name":"大鹏半岛海柴角山脚","SeaCoast":"深圳大亚湾岸段","Section":"17","ForcastStation":"290","lng":"114.6333273","lat":"22.51476819","height":"8.75","珠基高程":"8.01","land":"东西涌","district":"大鹏新区","value":"85","ObservedTime":"2020/4/9 13:55"},
{"ID":"217","Name":"大鹏半岛鞋柴角山脚","SeaCoast":"深圳大亚湾岸段","Section":"17","ForcastStation":"291","lng":"114.6306521","lat":"22.52180634","height":"7.35","珠基高程":"6.61","land":"东西涌","district":"大鹏新区","value":"85","ObservedTime":"2020/4/9 13:55"},
{"ID":"218","Name":"大鹏半岛丁心湖山脚","SeaCoast":"深圳大亚湾岸段","Section":"17","ForcastStation":"292","lng":"114.6250155","lat":"22.52821708","height":"7.68","珠基高程":"6.94","land":"东西涌","district":"大鹏新区","value":"85","ObservedTime":"2020/4/9 13:55"},
{"ID":"219","Name":"大鹏半岛丁心湖山脚","SeaCoast":"深圳大亚湾岸段","Section":"17","ForcastStation":"293","lng":"114.6186835","lat":"22.53157469","height":"8.32","珠基高程":"7.58","land":"东西涌","district":"大鹏新区","value":"85","ObservedTime":"2020/4/9 13:55"},
{"ID":"220","Name":"大鹏半岛丁心湖山脚","SeaCoast":"深圳大亚湾岸段","Section":"17","ForcastStation":"294","lng":"114.6138003","lat":"22.53523767","height":"8.01","珠基高程":"7.27","land":"东西涌","district":"大鹏新区","value":"85","ObservedTime":"2020/4/9 13:55"},
{"ID":"221","Name":"大鹏半岛高崖山脚","SeaCoast":"深圳大亚湾岸段","Section":"17","ForcastStation":"295","lng":"114.615583","lat":"22.54084744","height":"8.31","珠基高程":"7.57","land":"东西涌","district":"大鹏新区","value":"85","ObservedTime":"2020/4/9 13:55"},
{"ID":"222","Name":"大鹏半岛高山角山脚","SeaCoast":"深圳大亚湾岸段","Section":"17","ForcastStation":"296","lng":"114.6163214","lat":"22.54625221","height":"8.32","珠基高程":"7.58","land":"东西涌","district":"大鹏新区","value":"85","ObservedTime":"2020/4/9 13:55"},
{"ID":"223","Name":"大鹏半岛高山角山脚","SeaCoast":"深圳大亚湾岸段","Section":"17","ForcastStation":"297","lng":"114.6104112","lat":"22.54514851","height":"8.63","珠基高程":"7.89","land":"东西涌","district":"大鹏新区","value":"86","ObservedTime":"2020/4/9 13:55"},
{"ID":"224","Name":"鹿咀大道","SeaCoast":"深圳大亚湾岸段","Section":"17","ForcastStation":"298","lng":"114.6045306","lat":"22.54558729","height":"8.35","珠基高程":"7.61","land":"杨梅坑","district":"大鹏新区","value":"86","ObservedTime":"2020/4/9 13:55"},
{"ID":"225","Name":"鹿咀大道","SeaCoast":"深圳大亚湾岸段","Section":"17","ForcastStation":"299","lng":"114.5986266","lat":"22.54637134","height":"8.42","珠基高程":"7.68","land":"杨梅坑","district":"大鹏新区","value":"86","ObservedTime":"2020/4/9 13:55"},
{"ID":"226","Name":"鹿咀大道","SeaCoast":"深圳大亚湾岸段","Section":"17","ForcastStation":"300","lng":"114.5933974","lat":"22.54799484","height":"8.63","珠基高程":"7.89","land":"杨梅坑","district":"大鹏新区","value":"86","ObservedTime":"2020/4/9 13:55"},
{"ID":"227","Name":"鹿咀大道","SeaCoast":"深圳大亚湾岸段","Section":"17","ForcastStation":"301","lng":"114.5879946","lat":"22.54951087","height":"8.56","珠基高程":"7.82","land":"杨梅坑","district":"大鹏新区","value":"86","ObservedTime":"2020/4/9 13:55"},
{"ID":"228","Name":"鹿咀大道","SeaCoast":"深圳大亚湾岸段","Section":"17","ForcastStation":"302","lng":"114.5827337","lat":"22.55058068","height":"5.63","珠基高程":"4.89","land":"杨梅坑","district":"大鹏新区","value":"86","ObservedTime":"2020/4/9 13:55"},
{"ID":"229","Name":"南澳杨梅坑","SeaCoast":"深圳大亚湾岸段","Section":"17","ForcastStation":"303","lng":"114.579847","lat":"22.55084523","height":"4.87","珠基高程":"4.13","land":"杨梅坑","district":"大鹏新区","value":"86","ObservedTime":"2020/4/9 13:55"},
{"ID":"230","Name":"南澳杨梅坑","SeaCoast":"深圳大亚湾岸段","Section":"17","ForcastStation":"304","lng":"114.5777257","lat":"22.54802856","height":"4.95","珠基高程":"4.21","land":"杨梅坑","district":"大鹏新区","value":"86","ObservedTime":"2020/4/9 13:55"},
{"ID":"231","Name":"南澳杨梅坑","SeaCoast":"深圳大亚湾岸段","Section":"17","ForcastStation":"305","lng":"114.5759017","lat":"22.55165846","height":"4.93","珠基高程":"4.19","land":"杨梅坑","district":"大鹏新区","value":"86","ObservedTime":"2020/4/9 13:55"},
{"ID":"232","Name":"南澳新东路","SeaCoast":"深圳大亚湾岸段","Section":"17","ForcastStation":"306","lng":"114.57399","lat":"22.55366238","height":"4.49","珠基高程":"3.75","land":"杨梅坑","district":"大鹏新区","value":"86","ObservedTime":"2020/4/9 13:55"},
{"ID":"233","Name":"南澳新东路","SeaCoast":"深圳大亚湾岸段","Section":"18","ForcastStation":"307","lng":"114.5723879","lat":"22.555892","height":"4.81","珠基高程":"4.07","land":"杨梅坑","district":"大鹏新区","value":"86","ObservedTime":"2020/4/9 13:55"},
{"ID":"234","Name":"南澳新东路","SeaCoast":"深圳大亚湾岸段","Section":"18","ForcastStation":"308","lng":"114.5702595","lat":"22.5577048","height":"8.72","珠基高程":"7.98","land":"杨梅坑","district":"大鹏新区","value":"86","ObservedTime":"2020/4/9 13:55"},
{"ID":"235","Name":"浪骑游艇会","SeaCoast":"深圳大亚湾岸段","Section":"18","ForcastStation":"309","lng":"114.5709112","lat":"22.56033717","height":"5.36","珠基高程":"4.62","land":"杨梅坑","district":"大鹏新区","value":"86","ObservedTime":"2020/4/9 13:55"},
{"ID":"236","Name":"浪骑游艇会","SeaCoast":"深圳大亚湾岸段","Section":"18","ForcastStation":"310","lng":"114.5688752","lat":"22.56231985","height":"5.4","珠基高程":"4.66","land":"杨梅坑","district":"大鹏新区","value":"86","ObservedTime":"2020/4/9 13:55"},
{"ID":"237","Name":"海上运动学校","SeaCoast":"深圳大亚湾岸段","Section":"18","ForcastStation":"311","lng":"114.5641672","lat":"22.56199577","height":"5.83","珠基高程":"5.09","land":"杨梅坑","district":"大鹏新区","value":"86","ObservedTime":"2020/4/9 13:55"},
{"ID":"238","Name":"海上运动学校","SeaCoast":"深圳大亚湾岸段","Section":"18","ForcastStation":"312","lng":"114.5617329","lat":"22.56119416","height":"13","珠基高程":"12.3","land":"杨梅坑","district":"大鹏新区","value":"86","ObservedTime":"2020/4/9 13:55"},
{"ID":"239","Name":"桔钓沙","SeaCoast":"深圳大亚湾岸段","Section":"18","ForcastStation":"313","lng":"114.560476","lat":"22.5636258","height":"6.97","珠基高程":"6.23","land":"杨梅坑","district":"大鹏新区","value":"86","ObservedTime":"2020/4/9 13:55"},
{"ID":"240","Name":"大鹏半岛企石离山脚","SeaCoast":"深圳大亚湾岸段","Section":"18","ForcastStation":"314","lng":"114.5607533","lat":"22.56704045","height":"6.87","珠基高程":"6.13","land":"东山","district":"大鹏新区","value":"86","ObservedTime":"2020/4/9 13:55"},
{"ID":"241","Name":"大鹏半岛企石离山脚","SeaCoast":"深圳大亚湾岸段","Section":"18","ForcastStation":"315","lng":"114.5601172","lat":"22.57142791","height":"6.78","珠基高程":"6.04","land":"东山","district":"大鹏新区","value":"86","ObservedTime":"2020/4/9 13:55"},
{"ID":"242","Name":"大鹏半岛螺汗角山脚","SeaCoast":"深圳大亚湾岸段","Section":"18","ForcastStation":"316","lng":"114.5549984","lat":"22.57380231","height":"7.03","珠基高程":"6.29","land":"东山","district":"大鹏新区","value":"86","ObservedTime":"2020/4/9 13:55"},
{"ID":"243","Name":"大鹏半岛榕树角山脚","SeaCoast":"深圳大亚湾岸段","Section":"18","ForcastStation":"317","lng":"114.5503722","lat":"22.57180125","height":"7.23","珠基高程":"6.49","land":"东山","district":"大鹏新区","value":"86","ObservedTime":"2020/4/9 13:55"},
{"ID":"244","Name":"大鹏半岛榕树角山脚","SeaCoast":"深圳大亚湾岸段","Section":"18","ForcastStation":"318","lng":"114.5464533","lat":"22.57243318","height":"8.16","珠基高程":"7.42","land":"东山","district":"大鹏新区","value":"87","ObservedTime":"2020/4/9 13:55"},
{"ID":"245","Name":"七星湾游艇俱乐部","SeaCoast":"深圳大亚湾岸段","Section":"18","ForcastStation":"319","lng":"114.5436772","lat":"22.57163727","height":"4.96","珠基高程":"4.22","land":"东山","district":"大鹏新区","value":"87","ObservedTime":"2020/4/9 13:55"},
{"ID":"246","Name":"七星湾游艇俱乐部","SeaCoast":"深圳大亚湾岸段","Section":"18","ForcastStation":"320","lng":"114.5434207","lat":"22.56942076","height":"4.52","珠基高程":"3.78","land":"东山","district":"大鹏新区","value":"87","ObservedTime":"2020/4/9 13:55"},
{"ID":"247","Name":"大鹏半岛虎头山脚","SeaCoast":"深圳大亚湾岸段","Section":"18","ForcastStation":"321","lng":"114.5402385","lat":"22.57008571","height":"7.68","珠基高程":"6.94","land":"东山","district":"大鹏新区","value":"87","ObservedTime":"2020/4/9 13:55"},
{"ID":"248","Name":"大鹏半岛虎头山脚","SeaCoast":"深圳大亚湾岸段","Section":"18","ForcastStation":"322","lng":"114.5362077","lat":"22.56988811","height":"8.03","珠基高程":"7.29","land":"东山","district":"大鹏新区","value":"87","ObservedTime":"2020/4/9 13:55"},
{"ID":"249","Name":"大鹏半岛虎头山脚","SeaCoast":"深圳大亚湾岸段","Section":"18","ForcastStation":"323","lng":"114.5366648","lat":"22.56804113","height":"6.43","珠基高程":"5.69","land":"东山","district":"大鹏新区","value":"87","ObservedTime":"2020/4/9 13:55"},
{"ID":"250","Name":"南澳东渔村","SeaCoast":"深圳大亚湾岸段","Section":"18","ForcastStation":"324","lng":"114.5367634","lat":"22.56532972","height":"3.57","珠基高程":"2.83","land":"东山","district":"大鹏新区","value":"87","ObservedTime":"2020/4/9 13:55"},
{"ID":"251","Name":"南澳东渔村","SeaCoast":"深圳大亚湾岸段","Section":"18","ForcastStation":"325","lng":"114.5365223","lat":"22.5626349","height":"3.52","珠基高程":"2.78","land":"东山","district":"大鹏新区","value":"87","ObservedTime":"2020/4/9 13:55"},
{"ID":"252","Name":"南澳东渔村","SeaCoast":"深圳大亚湾岸段","Section":"18","ForcastStation":"326","lng":"114.5348437","lat":"22.5604366","height":"3.27","珠基高程":"2.53","land":"东山","district":"大鹏新区","value":"87","ObservedTime":"2020/4/9 13:55"},
{"ID":"253","Name":"南澳东渔村","SeaCoast":"深圳大亚湾岸段","Section":"18","ForcastStation":"327","lng":"114.5322018","lat":"22.56009015","height":"3.12","珠基高程":"2.38","land":"东山","district":"大鹏新区","value":"87","ObservedTime":"2020/4/9 13:55"},
{"ID":"254","Name":"南澳东渔村","SeaCoast":"深圳大亚湾岸段","Section":"18","ForcastStation":"328","lng":"114.5306348","lat":"22.55783566","height":"4.82","珠基高程":"4.08","land":"东山","district":"大鹏新区","value":"87","ObservedTime":"2020/4/9 13:55"},
{"ID":"255","Name":"南澳东渔村","SeaCoast":"深圳大亚湾岸段","Section":"18","ForcastStation":"329","lng":"114.5312436","lat":"22.55232458","height":"5.93","珠基高程":"5.19","land":"东山","district":"大鹏新区","value":"87","ObservedTime":"2020/4/9 13:55"},
{"ID":"256","Name":"东海岸水产公司","SeaCoast":"深圳大亚湾岸段","Section":"18","ForcastStation":"330","lng":"114.5287683","lat":"22.55547415","height":"5.64","珠基高程":"4.9","land":"东山","district":"大鹏新区","value":"87","ObservedTime":"2020/4/9 13:55"},
{"ID":"257","Name":"东海岸水产公司","SeaCoast":"深圳大亚湾岸段","Section":"18","ForcastStation":"331","lng":"114.5259289","lat":"22.55612999","height":"5.58","珠基高程":"4.84","land":"东山","district":"大鹏新区","value":"87","ObservedTime":"2020/4/9 13:55"},
{"ID":"258","Name":"东海岸水产公司","SeaCoast":"深圳大亚湾岸段","Section":"18","ForcastStation":"332","lng":"114.5230864","lat":"22.55679405","height":"5.62","珠基高程":"4.88","land":"东山","district":"大鹏新区","value":"87","ObservedTime":"2020/4/9 13:55"},
{"ID":"259","Name":"东海岸水产公司","SeaCoast":"深圳大亚湾岸段","Section":"18","ForcastStation":"333","lng":"114.5202534","lat":"22.55746916","height":"5.68","珠基高程":"4.94","land":"东山","district":"大鹏新区","value":"87","ObservedTime":"2020/4/9 13:55"},
{"ID":"260","Name":"东海岸水产公司","SeaCoast":"深圳大亚湾岸段","Section":"18","ForcastStation":"334","lng":"114.5174069","lat":"22.55814","height":"5.62","珠基高程":"4.88","land":"东山","district":"大鹏新区","value":"87","ObservedTime":"2020/4/9 13:55"},
{"ID":"261","Name":"东海岸水产公司","SeaCoast":"深圳大亚湾岸段","Section":"19","ForcastStation":"335","lng":"114.5145676","lat":"22.5588146","height":"5.53","珠基高程":"4.79","land":"东山","district":"大鹏新区","value":"87","ObservedTime":"2020/4/9 13:55"},
{"ID":"262","Name":"东海岸水产公司","SeaCoast":"深圳大亚湾岸段","Section":"19","ForcastStation":"336","lng":"114.5123258","lat":"22.55932011","height":"5.36","珠基高程":"4.62","land":"东山","district":"大鹏新区","value":"87","ObservedTime":"2020/4/9 13:55"},
{"ID":"263","Name":"东海岸水产公司","SeaCoast":"深圳大亚湾岸段","Section":"19","ForcastStation":"337","lng":"114.5092409","lat":"22.55856654","height":"6.38","珠基高程":"5.64","land":"东山","district":"大鹏新区","value":"87","ObservedTime":"2020/4/9 13:55"},
{"ID":"264","Name":"东海岸水产公司","SeaCoast":"深圳大亚湾岸段","Section":"19","ForcastStation":"338","lng":"114.5099176","lat":"22.56118948","height":"4.58","珠基高程":"3.84","land":"东山","district":"大鹏新区","value":"87","ObservedTime":"2020/4/9 13:55"},
{"ID":"265","Name":"东海岸水产公司","SeaCoast":"深圳大亚湾岸段","Section":"19","ForcastStation":"339","lng":"114.5103898","lat":"22.56386081","height":"4.67","珠基高程":"3.93","land":"东山","district":"大鹏新区","value":"87","ObservedTime":"2020/4/9 13:55"},
{"ID":"266","Name":"东海岸水产公司","SeaCoast":"深圳大亚湾岸段","Section":"19","ForcastStation":"340","lng":"114.5108746","lat":"22.56651072","height":"4.83","珠基高程":"4.09","land":"东山","district":"大鹏新区","value":"87","ObservedTime":"2020/4/9 13:55"},
{"ID":"267","Name":"东海岸水产公司","SeaCoast":"深圳大亚湾岸段","Section":"19","ForcastStation":"341","lng":"114.5113762","lat":"22.56921182","height":"4.65","珠基高程":"3.91","land":"东山","district":"大鹏新区","value":"86","ObservedTime":"2020/4/9 13:55"},
{"ID":"268","Name":"共青团深圳教育基地","SeaCoast":"深圳大亚湾岸段","Section":"19","ForcastStation":"342","lng":"114.5118109","lat":"22.57326303","height":"5.43","珠基高程":"4.69","land":"东山","district":"大鹏新区","value":"86","ObservedTime":"2020/4/9 13:55"},
{"ID":"269","Name":"奇兵野战拓展训练基地","SeaCoast":"深圳大亚湾岸段","Section":"19","ForcastStation":"343","lng":"114.5109891","lat":"22.577512","height":"7.5","珠基高程":"6.76","land":"东山","district":"大鹏新区","value":"86","ObservedTime":"2020/4/9 13:55"},
{"ID":"270","Name":"奇兵野战拓展训练基地","SeaCoast":"深圳大亚湾岸段","Section":"19","ForcastStation":"344","lng":"114.5106298","lat":"22.58021041","height":"7.43","珠基高程":"6.69","land":"东山","district":"大鹏新区","value":"86","ObservedTime":"2020/4/9 13:55"},
{"ID":"271","Name":"国家无线电监测中心监测站","SeaCoast":"深圳大亚湾岸段","Section":"19","ForcastStation":"345","lng":"114.510536","lat":"22.5829213","height":"7.13","珠基高程":"6.39","land":"较场尾","district":"大鹏新区","value":"86","ObservedTime":"2020/4/9 13:55"},
{"ID":"272","Name":"国家无线电监测中心监测站","SeaCoast":"深圳大亚湾岸段","Section":"19","ForcastStation":"346","lng":"114.5114714","lat":"22.58554282","height":"6.47","珠基高程":"5.73","land":"较场尾","district":"大鹏新区","value":"86","ObservedTime":"2020/4/9 13:55"},
{"ID":"273","Name":"金水湾度假村","SeaCoast":"深圳大亚湾岸段","Section":"19","ForcastStation":"347","lng":"114.512642","lat":"22.587995","height":"5.03","珠基高程":"4.29","land":"较场尾","district":"大鹏新区","value":"86","ObservedTime":"2020/4/9 13:55"},
{"ID":"274","Name":"金水湾度假村","SeaCoast":"深圳大亚湾岸段","Section":"19","ForcastStation":"348","lng":"114.514287","lat":"22.59019643","height":"5.55","珠基高程":"4.81","land":"较场尾","district":"大鹏新区","value":"86","ObservedTime":"2020/4/9 13:55"},
{"ID":"275","Name":"金水湾度假村","SeaCoast":"深圳大亚湾岸段","Section":"19","ForcastStation":"349","lng":"114.5159441","lat":"22.59241575","height":"5.33","珠基高程":"4.59","land":"较场尾","district":"大鹏新区","value":"86","ObservedTime":"2020/4/9 13:55"},
{"ID":"276","Name":"金水湾度假村","SeaCoast":"深圳大亚湾岸段","Section":"19","ForcastStation":"350","lng":"114.5177432","lat":"22.59449214","height":"5.16","珠基高程":"4.42","land":"较场尾","district":"大鹏新区","value":"86","ObservedTime":"2020/4/9 13:55"},
{"ID":"277","Name":"金水湾度假村","SeaCoast":"深圳大亚湾岸段","Section":"19","ForcastStation":"351","lng":"114.5197765","lat":"22.59638767","height":"5.25","珠基高程":"4.51","land":"较场尾","district":"大鹏新区","value":"86","ObservedTime":"2020/4/9 13:55"},
{"ID":"278","Name":"金水湾度假村","SeaCoast":"深圳大亚湾岸段","Section":"19","ForcastStation":"352","lng":"114.5222755","lat":"22.59773788","height":"4.83","珠基高程":"4.09","land":"较场尾","district":"大鹏新区","value":"86","ObservedTime":"2020/4/9 13:55"},
{"ID":"279","Name":"金水湾度假村","SeaCoast":"深圳大亚湾岸段","Section":"19","ForcastStation":"353","lng":"114.524484","lat":"22.59889707","height":"6.65","珠基高程":"5.91","land":"较场尾","district":"大鹏新区","value":"86","ObservedTime":"2020/4/9 13:55"},
{"ID":"280","Name":"宝盛虾苗场","SeaCoast":"深圳大亚湾岸段","Section":"19","ForcastStation":"354","lng":"114.5261445","lat":"22.59664658","height":"6.23","珠基高程":"5.49","land":"较场尾","district":"大鹏新区","value":"86","ObservedTime":"2020/4/9 13:55"},
{"ID":"281","Name":"深圳市华文水产公司养殖场","SeaCoast":"深圳大亚湾岸段","Section":"19","ForcastStation":"355","lng":"114.5285886","lat":"22.59495894","height":"5.43","珠基高程":"4.69","land":"较场尾","district":"大鹏新区","value":"86","ObservedTime":"2020/4/9 13:55"},
{"ID":"282","Name":"兆凯生物工程研发中心基地","SeaCoast":"深圳大亚湾岸段","Section":"19","ForcastStation":"356","lng":"114.531011","lat":"22.59341671","height":"8.23","珠基高程":"7.49","land":"较场尾","district":"大鹏新区","value":"86","ObservedTime":"2020/4/9 13:55"},
{"ID":"283","Name":"大鹏鲍鱼养殖基地","SeaCoast":"深圳大亚湾岸段","Section":"19","ForcastStation":"357","lng":"114.5350293","lat":"22.59368665","height":"4.57","珠基高程":"3.83","land":"较场尾","district":"大鹏新区","value":"86","ObservedTime":"2020/4/9 13:55"},
{"ID":"284","Name":"大亚湾核电专家村","SeaCoast":"深圳大亚湾岸段","Section":"19","ForcastStation":"358","lng":"114.5389777","lat":"22.59558624","height":"12.3","珠基高程":"11.6","land":"大亚湾核电站","district":"大鹏新区","value":"86","ObservedTime":"2020/4/9 13:55"},
{"ID":"285","Name":"大亚湾凌角石山脚","SeaCoast":"深圳大亚湾岸段","Section":"19","ForcastStation":"359","lng":"114.5422825","lat":"22.59399793","height":"7.23","珠基高程":"6.49","land":"大亚湾核电站","district":"大鹏新区","value":"86","ObservedTime":"2020/4/9 13:55"},
{"ID":"286","Name":"大亚湾核电站","SeaCoast":"深圳大亚湾岸段","Section":"19","ForcastStation":"360","lng":"114.5465144","lat":"22.59425155","height":"5.87","珠基高程":"5.13","land":"大亚湾核电站","district":"大鹏新区","value":"86","ObservedTime":"2020/4/9 13:55"},
{"ID":"287","Name":"大亚湾核电站","SeaCoast":"深圳大亚湾岸段","Section":"19","ForcastStation":"361","lng":"114.5473732","lat":"22.59683539","height":"6.35","珠基高程":"5.61","land":"大亚湾核电站","district":"大鹏新区","value":"86","ObservedTime":"2020/4/9 13:55"},
{"ID":"288","Name":"大亚湾核电站","SeaCoast":"深圳大亚湾岸段","Section":"19","ForcastStation":"362","lng":"114.5495203","lat":"22.59705317","height":"6.32","珠基高程":"5.58","land":"大亚湾核电站","district":"大鹏新区","value":"86","ObservedTime":"2020/4/9 13:55"},
{"ID":"289","Name":"大亚湾核电站","SeaCoast":"深圳大亚湾岸段","Section":"19","ForcastStation":"363","lng":"114.5522534","lat":"22.59612719","height":"7.96","珠基高程":"7.22","land":"大亚湾核电站","district":"大鹏新区","value":"86","ObservedTime":"2020/4/9 13:55"},
{"ID":"290","Name":"大亚湾核电站","SeaCoast":"深圳大亚湾岸段","Section":"20","ForcastStation":"364","lng":"114.5548195","lat":"22.59741451","height":"7.21","珠基高程":"6.47","land":"大亚湾核电站","district":"大鹏新区","value":"86","ObservedTime":"2020/4/9 13:55"},
{"ID":"291","Name":"大亚湾核电站","SeaCoast":"深圳大亚湾岸段","Section":"20","ForcastStation":"365","lng":"114.5574065","lat":"22.59425891","height":"11.4","珠基高程":"10.6","land":"大亚湾核电站","district":"大鹏新区","value":"86","ObservedTime":"2020/4/9 13:55"},
{"ID":"292","Name":"大亚湾核电站","SeaCoast":"深圳大亚湾岸段","Section":"20","ForcastStation":"366","lng":"114.5579456","lat":"22.59692728","height":"14.3","珠基高程":"13.5","land":"大亚湾核电站","district":"大鹏新区","value":"86","ObservedTime":"2020/4/9 13:55"},
{"ID":"293","Name":"大亚湾核电站","SeaCoast":"深圳大亚湾岸段","Section":"20","ForcastStation":"367","lng":"114.5590397","lat":"22.59943576","height":"14.3","珠基高程":"13.6","land":"大亚湾核电站","district":"大鹏新区","value":"86","ObservedTime":"2020/4/9 13:55"},
{"ID":"294","Name":"大亚湾核电站","SeaCoast":"深圳大亚湾岸段","Section":"20","ForcastStation":"368","lng":"114.5610645","lat":"22.60141111","height":"14.3","珠基高程":"13.6","land":"大亚湾核电站","district":"大鹏新区","value":"86","ObservedTime":"2020/4/9 13:55"},
{"ID":"295","Name":"大亚湾核电站","SeaCoast":"深圳大亚湾岸段","Section":"20","ForcastStation":"369","lng":"114.5639161","lat":"22.60616371","height":"7.63","珠基高程":"6.89","land":"大亚湾核电站","district":"大鹏新区","value":"86","ObservedTime":"2020/4/9 13:55"},
{"ID":"296","Name":"大亚湾核电站","SeaCoast":"深圳大亚湾岸段","Section":"20","ForcastStation":"370","lng":"114.5633233","lat":"22.59969097","height":"14.6","珠基高程":"13.9","land":"大亚湾核电站","district":"大鹏新区","value":"86","ObservedTime":"2020/4/9 13:55"},
{"ID":"297","Name":"大亚湾核电站","SeaCoast":"深圳大亚湾岸段","Section":"20","ForcastStation":"371","lng":"114.5638173","lat":"22.60243838","height":"14.6","珠基高程":"13.9","land":"大亚湾核电站","district":"大鹏新区","value":"86","ObservedTime":"2020/4/9 13:55"},
{"ID":"298","Name":"大亚湾核电站","SeaCoast":"深圳大亚湾岸段","Section":"20","ForcastStation":"372","lng":"114.5667928","lat":"22.60651721","height":"6.45","珠基高程":"5.71","land":"大亚湾核电站","district":"大鹏新区","value":"86","ObservedTime":"2020/4/9 13:55"},
{"ID":"299","Name":"大亚湾核电站","SeaCoast":"深圳大亚湾岸段","Section":"20","ForcastStation":"373","lng":"114.5694191","lat":"22.60770873","height":"13.1","珠基高程":"12.4","land":"大亚湾核电站","district":"大鹏新区","value":"86","ObservedTime":"2020/4/9 13:55"},
{"ID":"300","Name":"大亚湾核电站","SeaCoast":"深圳大亚湾岸段","Section":"20","ForcastStation":"374","lng":"114.5730123","lat":"22.61166784","height":"7.44","珠基高程":"6.7","land":"大亚湾核电站","district":"大鹏新区","value":"86","ObservedTime":"2020/4/9 13:55"},
{"ID":"301","Name":"大亚湾核电站","SeaCoast":"深圳大亚湾岸段","Section":"20","ForcastStation":"375","lng":"114.5754824","lat":"22.61312873","height":"8.68","珠基高程":"7.94","land":"大亚湾核电站","district":"大鹏新区","value":"86","ObservedTime":"2020/4/9 13:55"},
{"ID":"302","Name":"大亚湾核电站","SeaCoast":"深圳大亚湾岸段","Section":"20","ForcastStation":"376","lng":"114.577398","lat":"22.61507167","height":"8.16","珠基高程":"7.42","land":"大亚湾核电站","district":"大鹏新区","value":"86","ObservedTime":"2020/4/9 13:55"},
{"ID":"303","Name":"大鹏半岛乌石脚山脚","SeaCoast":"深圳大亚湾岸段","Section":"20","ForcastStation":"377","lng":"114.5796109","lat":"22.6168532","height":"8.95","珠基高程":"8.21","land":"大亚湾核电站","district":"大鹏新区","value":"86","ObservedTime":"2020/4/9 13:55"},
{"ID":"304","Name":"大鹏半岛长山尾山脚","SeaCoast":"深圳大亚湾岸段","Section":"20","ForcastStation":"378","lng":"114.5814991","lat":"22.61893858","height":"17.1","珠基高程":"16.4","land":"大亚湾核电站","district":"大鹏新区","value":"87","ObservedTime":"2020/4/9 13:55"},
{"ID":"305","Name":"大鹏半岛长山尾山脚","SeaCoast":"深圳大亚湾岸段","Section":"20","ForcastStation":"379","lng":"114.5835497","lat":"22.6208921","height":"14.4","珠基高程":"13.6","land":"大亚湾核电站","district":"大鹏新区","value":"86","ObservedTime":"2020/4/9 13:55"},
{"ID":"306","Name":"大鹏半岛烟卷仔山脚","SeaCoast":"深圳大亚湾岸段","Section":"20","ForcastStation":"380","lng":"114.5864435","lat":"22.6206913","height":"15.4","珠基高程":"14.7","land":"大亚湾核电站","district":"大鹏新区","value":"87","ObservedTime":"2020/4/9 13:55"},
{"ID":"307","Name":"大鹏半岛烟卷仔山脚","SeaCoast":"深圳大亚湾岸段","Section":"20","ForcastStation":"381","lng":"114.5887145","lat":"22.62240763","height":"7.35","珠基高程":"6.61","land":"大亚湾核电站","district":"大鹏新区","value":"87","ObservedTime":"2020/4/9 13:55"},
{"ID":"308","Name":"大鹏半岛烟卷仔山脚","SeaCoast":"深圳大亚湾岸段","Section":"20","ForcastStation":"382","lng":"114.5902954","lat":"22.62965822","height":"8.09","珠基高程":"7.35","land":"大亚湾核电站","district":"大鹏新区","value":"88","ObservedTime":"2020/4/9 13:55"},
{"ID":"309","Name":"大鹏半岛烟卷仔山脚","SeaCoast":"深圳大亚湾岸段","Section":"20","ForcastStation":"383","lng":"114.5900372","lat":"22.63555833","height":"7.53","珠基高程":"6.79","land":"大亚湾核电站","district":"大鹏新区","value":"88","ObservedTime":"2020/4/9 13:55"},
{"ID":"310","Name":"大鹏半岛长湾山脚","SeaCoast":"深圳大亚湾岸段","Section":"20","ForcastStation":"384","lng":"114.5923316","lat":"22.64132686","height":"7.86","珠基高程":"7.12","land":"大亚湾核电站","district":"大鹏新区","value":"88","ObservedTime":"2020/4/9 13:55"},
{"ID":"311","Name":"大鹏半岛崖斗咀山脚","SeaCoast":"深圳大亚湾岸段","Section":"20","ForcastStation":"385","lng":"114.5981849","lat":"22.64418487","height":"8.47","珠基高程":"7.73","land":"大亚湾核电站","district":"大鹏新区","value":"88","ObservedTime":"2020/4/9 13:55"},
{"ID":"312","Name":"大鹏半岛崖斗咀山脚","SeaCoast":"深圳大亚湾岸段","Section":"20","ForcastStation":"386","lng":"114.6010895","lat":"22.64932818","height":"8.28","珠基高程":"7.54","land":"大亚湾核电站","district":"大鹏新区","value":"88","ObservedTime":"2020/4/9 13:55"},
{"ID":"313","Name":"大鹏半岛虎头山脚","SeaCoast":"深圳大亚湾岸段","Section":"20","ForcastStation":"387","lng":"114.6059841","lat":"22.65751714","height":"8.66","珠基高程":"7.92","land":"大亚湾核电站","district":"大鹏新区","value":"88","ObservedTime":"2020/4/9 13:55"},
{"ID":"314","Name":"大鹏半岛排仔山脚","SeaCoast":"深圳大亚湾岸段","Section":"20","ForcastStation":"388","lng":"114.5977549","lat":"22.65903085","height":"8.57","珠基高程":"7.83","land":"大亚湾核电站","district":"大鹏新区","value":"89","ObservedTime":"2020/4/9 13:55"},
{"ID":"315","Name":"大鹏半岛廖哥角山脚","SeaCoast":"深圳大亚湾岸段","Section":"20","ForcastStation":"389","lng":"114.5890986","lat":"22.65942006","height":"7.36","珠基高程":"6.62","land":"坝光","district":"大鹏新区","value":"90","ObservedTime":"2020/4/9 13:55"},
{"ID":"316","Name":"大鹏半岛廖哥角山脚","SeaCoast":"深圳大亚湾岸段","Section":"20","ForcastStation":"390","lng":"114.5833279","lat":"22.65687072","height":"7.83","珠基高程":"7.09","land":"坝光","district":"大鹏新区","value":"90","ObservedTime":"2020/4/9 13:55"},
{"ID":"317","Name":"大鹏半岛田寮下山脚","SeaCoast":"深圳大亚湾岸段","Section":"20","ForcastStation":"391","lng":"114.5745886","lat":"22.65488264","height":"8.02","珠基高程":"7.28","land":"坝光","district":"大鹏新区","value":"90","ObservedTime":"2020/4/9 13:55"},
{"ID":"318","Name":"大鹏半岛田寮下山脚","SeaCoast":"深圳大亚湾岸段","Section":"20","ForcastStation":"392","lng":"114.5693477","lat":"22.6541787","height":"6.34","珠基高程":"5.6","land":"坝光","district":"大鹏新区","value":"90","ObservedTime":"2020/4/9 13:55"},
{"ID":"319","Name":"大鹏半岛田寮下山脚","SeaCoast":"深圳大亚湾岸段","Section":"21","ForcastStation":"393","lng":"114.5638604","lat":"22.65376504","height":"9.35","珠基高程":"8.61","land":"坝光","district":"大鹏新区","value":"90","ObservedTime":"2020/4/9 13:55"},
{"ID":"320","Name":"大鹏半岛田寮下山脚","SeaCoast":"深圳大亚湾岸段","Section":"21","ForcastStation":"394","lng":"114.5588432","lat":"22.65105516","height":"10.5","珠基高程":"9.72","land":"坝光","district":"大鹏新区","value":"90","ObservedTime":"2020/4/9 13:55"},
{"ID":"321","Name":"大鹏半岛田寮下山脚","SeaCoast":"深圳大亚湾岸段","Section":"21","ForcastStation":"395","lng":"114.5539299","lat":"22.65464732","height":"6.85","珠基高程":"6.11","land":"坝光","district":"大鹏新区","value":"90","ObservedTime":"2020/4/9 13:55"},
{"ID":"322","Name":"大鹏半岛田寮下山脚","SeaCoast":"深圳大亚湾岸段","Section":"21","ForcastStation":"396","lng":"114.5514","lat":"22.65190817","height":"9.28","珠基高程":"8.54","land":"坝光","district":"大鹏新区","value":"91","ObservedTime":"2020/4/9 13:55"},
{"ID":"323","Name":"坳仔下","SeaCoast":"深圳大亚湾岸段","Section":"21","ForcastStation":"397","lng":"114.5469337","lat":"22.6529931","height":"7.32","珠基高程":"6.58","land":"坝光","district":"大鹏新区","value":"91","ObservedTime":"2020/4/9 13:55"},
{"ID":"324","Name":"坳仔下客运码头","SeaCoast":"深圳大亚湾岸段","Section":"21","ForcastStation":"398","lng":"114.541369","lat":"22.65414489","height":"7.31","珠基高程":"6.57","land":"坝光","district":"大鹏新区","value":"91","ObservedTime":"2020/4/9 13:55"},
{"ID":"325","Name":"大鹏半岛横山山脚","SeaCoast":"深圳大亚湾岸段","Section":"21","ForcastStation":"399","lng":"114.5377238","lat":"22.65770485","height":"7.56","珠基高程":"6.82","land":"坝光","district":"大鹏新区","value":"91","ObservedTime":"2020/4/9 13:55"},
{"ID":"326","Name":"大鹏半岛横山山脚","SeaCoast":"深圳大亚湾岸段","Section":"21","ForcastStation":"400","lng":"114.5332897","lat":"22.65714085","height":"5.87","珠基高程":"5.13","land":"坝光","district":"大鹏新区","value":"91","ObservedTime":"2020/4/9 13:55"},
{"ID":"327","Name":"坝核公路","SeaCoast":"深圳大亚湾岸段","Section":"21","ForcastStation":"401","lng":"114.5349568","lat":"22.65353661","height":"8.58","珠基高程":"7.84","land":"坝光","district":"大鹏新区","value":"92","ObservedTime":"2020/4/9 13:55"},
{"ID":"328","Name":"坝核公路","SeaCoast":"深圳大亚湾岸段","Section":"21","ForcastStation":"402","lng":"114.5329012","lat":"22.65192734","height":"8.34","珠基高程":"7.6","land":"坝光","district":"大鹏新区","value":"92","ObservedTime":"2020/4/9 13:55"},
{"ID":"329","Name":"坝核公路","SeaCoast":"深圳大亚湾岸段","Section":"21","ForcastStation":"403","lng":"114.5302408","lat":"22.65066576","height":"8.23","珠基高程":"7.49","land":"坝光","district":"大鹏新区","value":"92","ObservedTime":"2020/4/9 13:55"},
{"ID":"330","Name":"坝核公路","SeaCoast":"深圳大亚湾岸段","Section":"21","ForcastStation":"404","lng":"114.5262948","lat":"22.6512459","height":"7.26","珠基高程":"6.52","land":"坝光","district":"大鹏新区","value":"92","ObservedTime":"2020/4/9 13:55"},
{"ID":"331","Name":"坝核公路","SeaCoast":"深圳大亚湾岸段","Section":"21","ForcastStation":"405","lng":"114.5241339","lat":"22.65061069","height":"6.46","珠基高程":"5.72","land":"坝光","district":"大鹏新区","value":"92","ObservedTime":"2020/4/9 13:55"},
{"ID":"332","Name":"坝核公路","SeaCoast":"深圳大亚湾岸段","Section":"21","ForcastStation":"406","lng":"114.5222311","lat":"22.64911668","height":"5.36","珠基高程":"4.62","land":"坝光","district":"大鹏新区","value":"92","ObservedTime":"2020/4/9 13:55"},
{"ID":"333","Name":"坝核公路","SeaCoast":"深圳大亚湾岸段","Section":"21","ForcastStation":"407","lng":"114.5198946","lat":"22.64746723","height":"6.38","珠基高程":"5.64","land":"坝光","district":"大鹏新区","value":"92","ObservedTime":"2020/4/9 13:55"},
{"ID":"334","Name":"坝核公路","SeaCoast":"深圳大亚湾岸段","Section":"21","ForcastStation":"408","lng":"114.5169673","lat":"22.64775373","height":"6.48","珠基高程":"5.74","land":"坝光","district":"大鹏新区","value":"92","ObservedTime":"2020/4/9 13:55"},
{"ID":"335","Name":"坝核公路","SeaCoast":"深圳大亚湾岸段","Section":"21","ForcastStation":"409","lng":"114.5138675","lat":"22.64814413","height":"5.06","珠基高程":"4.32","land":"坝光","district":"大鹏新区","value":"92","ObservedTime":"2020/4/9 13:55"},
{"ID":"336","Name":"坝核公路","SeaCoast":"深圳大亚湾岸段","Section":"21","ForcastStation":"410","lng":"114.5113454","lat":"22.64719428","height":"5.47","珠基高程":"4.73","land":"坝光","district":"大鹏新区","value":"92","ObservedTime":"2020/4/9 13:55"},
{"ID":"337","Name":"坝核公路","SeaCoast":"深圳大亚湾岸段","Section":"21","ForcastStation":"411","lng":"114.5083469","lat":"22.64556908","height":"5.56","珠基高程":"4.82","land":"坝光","district":"大鹏新区","value":"92","ObservedTime":"2020/4/9 13:55"},
{"ID":"338","Name":"西乡路","SeaCoast":"深圳大亚湾岸段","Section":"21","ForcastStation":"412","lng":"114.506831","lat":"22.64740009","height":"5.68","珠基高程":"4.94","land":"坝光","district":"大鹏新区","value":"92","ObservedTime":"2020/4/9 13:55"},
{"ID":"339","Name":"西乡路","SeaCoast":"深圳大亚湾岸段","Section":"21","ForcastStation":"413","lng":"114.5054966","lat":"22.64974736","height":"5.75","珠基高程":"5.01","land":"坝光","district":"大鹏新区","value":"92","ObservedTime":"2020/4/9 13:55"},
{"ID":"340","Name":"西乡路","SeaCoast":"深圳大亚湾岸段","Section":"21","ForcastStation":"414","lng":"114.5053802","lat":"22.65260594","height":"5.87","珠基高程":"5.13","land":"坝光","district":"大鹏新区","value":"92","ObservedTime":"2020/4/9 13:55"},
{"ID":"341","Name":"坝光下楼角","SeaCoast":"深圳大亚湾岸段","Section":"21","ForcastStation":"415","lng":"114.5069694","lat":"22.65572756","height":"5.26","珠基高程":"4.52","land":"坝光","district":"大鹏新区","value":"92","ObservedTime":"2020/4/9 13:55"},
{"ID":"342","Name":"西乡路","SeaCoast":"深圳大亚湾岸段","Section":"21","ForcastStation":"416","lng":"114.5051693","lat":"22.65787189","height":"8.45","珠基高程":"7.71","land":"坝光","district":"大鹏新区","value":"92","ObservedTime":"2020/4/9 13:55"},
{"ID":"343","Name":"西乡路","SeaCoast":"深圳大亚湾岸段","Section":"21","ForcastStation":"417","lng":"114.5062654","lat":"22.6603179","height":"10.1","珠基高程":"9.38","land":"坝光","district":"大鹏新区","value":"92","ObservedTime":"2020/4/9 13:55"},
{"ID":"344","Name":"大鹏半岛坪山口山脚","SeaCoast":"深圳大亚湾岸段","Section":"21","ForcastStation":"418","lng":"114.5106532","lat":"22.66374008","height":"8.27","珠基高程":"7.53","land":"坝光","district":"大鹏新区","value":"92","ObservedTime":"2020/4/9 13:55"},
{"ID":"345","Name":"大鹏半岛坪山口山脚","SeaCoast":"深圳大亚湾岸段","Section":"21","ForcastStation":"419","lng":"114.5154062","lat":"22.66675088","height":"9.86","珠基高程":"9.12","land":"坝光","district":"大鹏新区","value":"91","ObservedTime":"2020/4/9 13:55"},
{"ID":"346","Name":"大鹏半岛高山脚","SeaCoast":"深圳大亚湾岸段","Section":"21","ForcastStation":"420","lng":"114.5187914","lat":"22.67062694","height":"11.5","珠基高程":"10.3","land":"坝光","district":"大鹏新区","value":"104","ObservedTime":"2020/4/9 13:55"},
{"ID":"347","Name":"东宝河口","SeaCoast":"深圳珠江口岸段","Section":"1","ForcastStation":"0","lng":"113.7862185","lat":"22.75267643","height":"3.13","珠基高程":"2.38","land":"东宝河","district":"宝安区","value":"133","ObservedTime":"2020/4/9 13:55"},
{"ID":"348","Name":"东宝河口","SeaCoast":"深圳珠江口岸段","Section":"1","ForcastStation":"0","lng":"113.7827099","lat":"22.75105955","height":"3.72","珠基高程":"2.98","land":"东宝河","district":"宝安区","value":"133","ObservedTime":"2020/4/9 13:55"},
{"ID":"349","Name":"东宝河口","SeaCoast":"深圳珠江口岸段","Section":"1","ForcastStation":"0","lng":"113.7794199","lat":"22.74904572","height":"3.92","珠基高程":"3.18","land":"东宝河","district":"宝安区","value":"133","ObservedTime":"2020/4/9 13:55"},
{"ID":"350","Name":"东宝河口","SeaCoast":"深圳珠江口岸段","Section":"1","ForcastStation":"1","lng":"113.7761674","lat":"22.74719298","height":"3.11","珠基高程":"2.37","land":"东宝河","district":"宝安区","value":"133","ObservedTime":"2020/4/9 13:55"},
{"ID":"351","Name":"东宝河口边防码头","SeaCoast":"深圳珠江口岸段","Section":"1","ForcastStation":"1","lng":"113.7730729","lat":"22.74504187","height":"4.08","珠基高程":"3.33","land":"东宝河","district":"宝安区","value":"133","ObservedTime":"2020/4/9 13:55"},
{"ID":"352","Name":"西海堤沙井上涌","SeaCoast":"深圳珠江口岸段","Section":"1","ForcastStation":"2","lng":"113.7726263","lat":"22.74146234","height":"3.9","珠基高程":"3.16","land":"西海堤","district":"宝安区","value":"133","ObservedTime":"2020/4/9 13:55"},
{"ID":"353","Name":"西海堤沙井上涌、石围涌","SeaCoast":"深圳珠江口岸段","Section":"1","ForcastStation":"3","lng":"113.772325","lat":"22.73786148","height":"4.42","珠基高程":"3.68","land":"西海堤","district":"宝安区","value":"133","ObservedTime":"2020/4/9 13:55"},
{"ID":"354","Name":"西海堤石围涌","SeaCoast":"深圳珠江口岸段","Section":"1","ForcastStation":"3","lng":"113.772451","lat":"22.73425169","height":"4.26","珠基高程":"3.51","land":"西海堤","district":"宝安区","value":"133","ObservedTime":"2020/4/9 13:55"},
{"ID":"355","Name":"西海堤石围涌、下涌","SeaCoast":"深圳珠江口岸段","Section":"1","ForcastStation":"4","lng":"113.7728307","lat":"22.73064957","height":"4.43","珠基高程":"3.68","land":"西海堤","district":"宝安区","value":"132","ObservedTime":"2020/4/9 13:55"},
{"ID":"356","Name":"西海堤下涌","SeaCoast":"深圳珠江口岸段","Section":"1","ForcastStation":"4","lng":"113.7732273","lat":"22.72705389","height":"4.45","珠基高程":"3.71","land":"西海堤","district":"宝安区","value":"132","ObservedTime":"2020/4/9 13:55"},
{"ID":"357","Name":"西海堤沙涌","SeaCoast":"深圳珠江口岸段","Section":"1","ForcastStation":"4","lng":"113.7736546","lat":"22.72346291","height":"3.13","珠基高程":"2.38","land":"西海堤","district":"宝安区","value":"132","ObservedTime":"2020/4/9 13:55"},
{"ID":"358","Name":"沙井西海堤管理所附近","SeaCoast":"深圳珠江口岸段","Section":"1","ForcastStation":"4","lng":"113.7741044","lat":"22.71987501","height":"3.55","珠基高程":"2.81","land":"西海堤","district":"宝安区","value":"132","ObservedTime":"2020/4/9 13:55"},
{"ID":"359","Name":"西海堤和二涌","SeaCoast":"深圳珠江口岸段","Section":"1","ForcastStation":"5","lng":"113.7745576","lat":"22.71627538","height":"3.42","珠基高程":"2.68","land":"西海堤","district":"宝安区","value":"132","ObservedTime":"2020/4/9 13:55"},
{"ID":"360","Name":"西海堤沙福涌","SeaCoast":"深圳珠江口岸段","Section":"1","ForcastStation":"5","lng":"113.7751253","lat":"22.71270166","height":"3.58","珠基高程":"2.83","land":"西海堤","district":"宝安区","value":"132","ObservedTime":"2020/4/9 13:55"},
{"ID":"361","Name":"西海堤塘尾涌","SeaCoast":"深圳珠江口岸段","Section":"1","ForcastStation":"5","lng":"113.7754957","lat":"22.70909932","height":"3.71","珠基高程":"2.96","land":"西海堤","district":"宝安区","value":"132","ObservedTime":"2020/4/9 13:55"},
{"ID":"362","Name":"西海堤塘尾涌、和平涌","SeaCoast":"深圳珠江口岸段","Section":"1","ForcastStation":"5","lng":"113.7763329","lat":"22.70556975","height":"3.25","珠基高程":"2.51","land":"西海堤","district":"宝安区","value":"132","ObservedTime":"2020/4/9 13:55"},
{"ID":"363","Name":"西海堤和平涌","SeaCoast":"深圳珠江口岸段","Section":"1","ForcastStation":"6","lng":"113.7771794","lat":"22.70203181","height":"3.41","珠基高程":"2.66","land":"西海堤","district":"宝安区","value":"132","ObservedTime":"2020/4/9 13:55"},
{"ID":"364","Name":"西海堤玻璃围涌","SeaCoast":"深圳珠江口岸段","Section":"1","ForcastStation":"6","lng":"113.7780277","lat":"22.69849616","height":"3.42","珠基高程":"2.68","land":"西海堤","district":"宝安区","value":"132","ObservedTime":"2020/4/9 13:55"},
{"ID":"365","Name":"西海堤玻璃围涌、四兴涌","SeaCoast":"深圳珠江口岸段","Section":"1","ForcastStation":"6","lng":"113.7794166","lat":"22.69510018","height":"3.38","珠基高程":"2.63","land":"西海堤","district":"宝安区","value":"132","ObservedTime":"2020/4/9 13:55"},
{"ID":"366","Name":"西海堤玻璃围涌、四兴涌","SeaCoast":"深圳珠江口岸段","Section":"1","ForcastStation":"6","lng":"113.7810218","lat":"22.69179532","height":"3.46","珠基高程":"2.71","land":"西海堤","district":"宝安区","value":"132","ObservedTime":"2020/4/9 13:55"},
{"ID":"367","Name":"西海堤四兴涌","SeaCoast":"深圳珠江口岸段","Section":"1","ForcastStation":"6","lng":"113.7827347","lat":"22.6885312","height":"3.52","珠基高程":"2.78","land":"西海堤","district":"宝安区","value":"132","ObservedTime":"2020/4/9 13:55"},
{"ID":"368","Name":"西海堤坳颈涌","SeaCoast":"深圳珠江口岸段","Section":"1","ForcastStation":"7","lng":"113.7844476","lat":"22.68525931","height":"3.7","珠基高程":"2.96","land":"西海堤","district":"宝安区","value":"133","ObservedTime":"2020/4/9 13:55"},
{"ID":"369","Name":"西海堤坳颈涌、灶下涌","SeaCoast":"深圳珠江口岸段","Section":"1","ForcastStation":"7","lng":"113.7863944","lat":"22.68209536","height":"4.83","珠基高程":"4.08","land":"西海堤","district":"宝安区","value":"133","ObservedTime":"2020/4/9 13:55"},
{"ID":"370","Name":"西海堤新和荣利码头","SeaCoast":"深圳珠江口岸段","Section":"1","ForcastStation":"8","lng":"113.7897008","lat":"22.6774888","height":"4.52","珠基高程":"3.78","land":"西海堤","district":"宝安区","value":"133","ObservedTime":"2020/4/9 13:55"},
{"ID":"371","Name":"新和荣利码头","SeaCoast":"深圳珠江口岸段","Section":"1","ForcastStation":"8","lng":"113.7859868","lat":"22.6764285","height":"3.35","珠基高程":"2.61","land":"西海堤","district":"宝安区","value":"133","ObservedTime":"2020/4/9 13:55"},
{"ID":"372","Name":"新和荣利码头","SeaCoast":"深圳珠江口岸段","Section":"1","ForcastStation":"8","lng":"113.7825605","lat":"22.67476467","height":"3.53","珠基高程":"2.78","land":"西海堤","district":"宝安区","value":"133","ObservedTime":"2020/4/9 13:55"},
{"ID":"373","Name":"新和荣利码头","SeaCoast":"深圳珠江口岸段","Section":"2","ForcastStation":"9","lng":"113.7797316","lat":"22.67315666","height":"3.54","珠基高程":"2.79","land":"西海堤","district":"宝安区","value":"133","ObservedTime":"2020/4/9 13:55"},
{"ID":"374","Name":"新和荣利码头","SeaCoast":"深圳珠江口岸段","Section":"2","ForcastStation":"9","lng":"113.7760718","lat":"22.67634426","height":"4.35","珠基高程":"3.61","land":"西海堤","district":"宝安区","value":"133","ObservedTime":"2020/4/9 13:55"},
{"ID":"375","Name":"新和荣利码头","SeaCoast":"深圳珠江口岸段","Section":"2","ForcastStation":"9","lng":"113.7773688","lat":"22.67292495","height":"3.63","珠基高程":"2.88","land":"西海堤","district":"宝安区","value":"133","ObservedTime":"2020/4/9 13:55"},
{"ID":"376","Name":"新和荣利码头","SeaCoast":"深圳珠江口岸段","Section":"2","ForcastStation":"9","lng":"113.7795953","lat":"22.67088056","height":"4","珠基高程":"3.26","land":"西海堤","district":"宝安区","value":"133","ObservedTime":"2020/4/9 13:55"},
{"ID":"377","Name":"新和荣利码头","SeaCoast":"深圳珠江口岸段","Section":"2","ForcastStation":"9","lng":"113.7825878","lat":"22.67316762","height":"3.72","珠基高程":"2.98","land":"西海堤","district":"宝安区","value":"133","ObservedTime":"2020/4/9 13:55"},
{"ID":"378","Name":"新和荣利码头","SeaCoast":"深圳珠江口岸段","Section":"2","ForcastStation":"9","lng":"113.7860099","lat":"22.67485152","height":"3.74","珠基高程":"2.99","land":"西海堤","district":"宝安区","value":"133","ObservedTime":"2020/4/9 13:55"},
{"ID":"379","Name":"新和荣利码头","SeaCoast":"深圳珠江口岸段","Section":"2","ForcastStation":"10","lng":"113.7895927","lat":"22.67620373","height":"3.82","珠基高程":"3.08","land":"西海堤","district":"宝安区","value":"133","ObservedTime":"2020/4/9 13:55"},
{"ID":"380","Name":"福永虾山涌","SeaCoast":"深圳珠江口岸段","Section":"2","ForcastStation":"10","lng":"113.7931935","lat":"22.67752595","height":"4.02","珠基高程":"3.28","land":"西海堤","district":"宝安区","value":"133","ObservedTime":"2020/4/9 13:55"},
{"ID":"381","Name":"福永虾山涌","SeaCoast":"深圳珠江口岸段","Section":"2","ForcastStation":"10","lng":"113.7982954","lat":"22.67804372","height":"4.21","珠基高程":"3.47","land":"西海堤","district":"宝安区","value":"133","ObservedTime":"2020/4/9 13:55"},
{"ID":"382","Name":"正强投资发展有限公司","SeaCoast":"深圳珠江口岸段","Section":"2","ForcastStation":"10","lng":"113.7855329","lat":"22.67321076","height":"4.32","珠基高程":"3.58","land":"西海堤","district":"宝安区","value":"133","ObservedTime":"2020/4/9 13:55"},
{"ID":"383","Name":"正强投资发展有限公司","SeaCoast":"深圳珠江口岸段","Section":"2","ForcastStation":"10","lng":"113.786492","lat":"22.67138054","height":"4.25","珠基高程":"3.51","land":"西海堤","district":"宝安区","value":"133","ObservedTime":"2020/4/9 13:55"},
{"ID":"384","Name":"宝安机场海堤","SeaCoast":"深圳珠江口岸段","Section":"2","ForcastStation":"10","lng":"113.7920582","lat":"22.67430322","height":"6.57","珠基高程":"5.83","land":"宝安国际机场","district":"宝安区","value":"133","ObservedTime":"2020/4/9 13:55"},
{"ID":"385","Name":"宝安机场海堤","SeaCoast":"深圳珠江口岸段","Section":"2","ForcastStation":"11","lng":"113.7910927","lat":"22.67082805","height":"7.76","珠基高程":"7.02","land":"宝安国际机场","district":"宝安区","value":"133","ObservedTime":"2020/4/9 13:55"},
{"ID":"386","Name":"宝安机场海堤","SeaCoast":"深圳珠江口岸段","Section":"2","ForcastStation":"11","lng":"113.7904813","lat":"22.66726538","height":"7.82","珠基高程":"7.08","land":"宝安国际机场","district":"宝安区","value":"133","ObservedTime":"2020/4/9 13:55"},
{"ID":"387","Name":"宝安机场海堤","SeaCoast":"深圳珠江口岸段","Section":"2","ForcastStation":"12","lng":"113.7899177","lat":"22.66370002","height":"7.83","珠基高程":"7.08","land":"宝安国际机场","district":"宝安区","value":"134","ObservedTime":"2020/4/9 13:55"},
{"ID":"388","Name":"宝安机场海堤","SeaCoast":"深圳珠江口岸段","Section":"2","ForcastStation":"12","lng":"113.7916743","lat":"22.66044994","height":"7.76","珠基高程":"7.02","land":"宝安国际机场","district":"宝安区","value":"134","ObservedTime":"2020/4/9 13:55"},
{"ID":"389","Name":"宝安机场海堤","SeaCoast":"深圳珠江口岸段","Section":"2","ForcastStation":"12","lng":"113.7934478","lat":"22.65719328","height":"7.74","珠基高程":"7","land":"宝安国际机场","district":"宝安区","value":"134","ObservedTime":"2020/4/9 13:55"},
{"ID":"390","Name":"宝安机场海堤","SeaCoast":"深圳珠江口岸段","Section":"2","ForcastStation":"12","lng":"113.7952081","lat":"22.65394411","height":"7.75","珠基高程":"7","land":"宝安国际机场","district":"宝安区","value":"134","ObservedTime":"2020/4/9 13:55"},
{"ID":"391","Name":"宝安机场海堤","SeaCoast":"深圳珠江口岸段","Section":"2","ForcastStation":"13","lng":"113.7969777","lat":"22.65068385","height":"7.65","珠基高程":"6.9","land":"宝安国际机场","district":"宝安区","value":"135","ObservedTime":"2020/4/9 13:55"},
{"ID":"392","Name":"宝安机场海堤","SeaCoast":"深圳珠江口岸段","Section":"2","ForcastStation":"13","lng":"113.7987331","lat":"22.64743001","height":"7.63","珠基高程":"6.88","land":"宝安国际机场","district":"宝安区","value":"135","ObservedTime":"2020/4/9 13:55"},
{"ID":"393","Name":"宝安机场海堤","SeaCoast":"深圳珠江口岸段","Section":"2","ForcastStation":"13","lng":"113.8005039","lat":"22.64417036","height":"7.76","珠基高程":"7.02","land":"宝安国际机场","district":"宝安区","value":"135","ObservedTime":"2020/4/9 13:55"},
{"ID":"394","Name":"宝安机场海堤","SeaCoast":"深圳珠江口岸段","Section":"2","ForcastStation":"13","lng":"113.8022694","lat":"22.64092046","height":"7.62","珠基高程":"6.87","land":"宝安国际机场","district":"宝安区","value":"135","ObservedTime":"2020/4/9 13:55"},
{"ID":"395","Name":"宝安机场海堤","SeaCoast":"深圳珠江口岸段","Section":"2","ForcastStation":"13","lng":"113.8040339","lat":"22.63767179","height":"7.5","珠基高程":"6.76","land":"宝安国际机场","district":"宝安区","value":"135","ObservedTime":"2020/4/9 13:55"},
{"ID":"396","Name":"宝安机场海堤","SeaCoast":"深圳珠江口岸段","Section":"2","ForcastStation":"14","lng":"113.8057973","lat":"22.63441698","height":"7.53","珠基高程":"6.79","land":"宝安国际机场","district":"宝安区","value":"135","ObservedTime":"2020/4/9 13:55"},
{"ID":"397","Name":"宝安机场海堤","SeaCoast":"深圳珠江口岸段","Section":"2","ForcastStation":"14","lng":"113.8075695","lat":"22.63116289","height":"7.57","珠基高程":"6.82","land":"宝安国际机场","district":"宝安区","value":"135","ObservedTime":"2020/4/9 13:55"},
{"ID":"398","Name":"宝安机场海堤","SeaCoast":"深圳珠江口岸段","Section":"2","ForcastStation":"14","lng":"113.8093346","lat":"22.62791486","height":"7.79","珠基高程":"7.04","land":"宝安国际机场","district":"宝安区","value":"135","ObservedTime":"2020/4/9 13:55"},
{"ID":"399","Name":"宝安机场海堤","SeaCoast":"深圳珠江口岸段","Section":"2","ForcastStation":"14","lng":"113.8111015","lat":"22.62466616","height":"7.72","珠基高程":"6.98","land":"宝安国际机场","district":"宝安区","value":"135","ObservedTime":"2020/4/9 13:55"},
{"ID":"400","Name":"宝安机场海堤","SeaCoast":"深圳珠江口岸段","Section":"2","ForcastStation":"14","lng":"113.8128682","lat":"22.62142107","height":"7.85","珠基高程":"7.11","land":"宝安国际机场","district":"宝安区","value":"135","ObservedTime":"2020/4/9 13:55"},
{"ID":"401","Name":"宝安机场海堤","SeaCoast":"深圳珠江口岸段","Section":"2","ForcastStation":"14","lng":"113.8146325","lat":"22.61818169","height":"7.73","珠基高程":"6.99","land":"宝安国际机场","district":"宝安区","value":"135","ObservedTime":"2020/4/9 13:55"},
{"ID":"402","Name":"宝安机场海堤","SeaCoast":"深圳珠江口岸段","Section":"2","ForcastStation":"15","lng":"113.8163934","lat":"22.6149411","height":"7.75","珠基高程":"7","land":"宝安国际机场","district":"宝安区","value":"135","ObservedTime":"2020/4/9 13:55"},
{"ID":"403","Name":"机场福永客运码头","SeaCoast":"深圳珠江口岸段","Section":"2","ForcastStation":"15","lng":"113.8176347","lat":"22.61074036","height":"5.62","珠基高程":"4.88","land":"机场码头","district":"宝安区","value":"135","ObservedTime":"2020/4/9 13:55"},
{"ID":"404","Name":"机场福永客运码头","SeaCoast":"深圳珠江口岸段","Section":"2","ForcastStation":"16","lng":"113.8219975","lat":"22.60470149","height":"5.53","珠基高程":"4.78","land":"机场码头","district":"宝安区","value":"135","ObservedTime":"2020/4/9 13:55"},
{"ID":"405","Name":"机场福永客运码头","SeaCoast":"深圳珠江口岸段","Section":"2","ForcastStation":"16","lng":"113.8220924","lat":"22.60884613","height":"7.25","珠基高程":"6.51","land":"机场码头","district":"宝安区","value":"135","ObservedTime":"2020/4/9 13:55"},
{"ID":"406","Name":"福永三围涌","SeaCoast":"深圳珠江口岸段","Section":"3","ForcastStation":"17","lng":"113.8255303","lat":"22.61049799","height":"7.2","珠基高程":"6.46","land":"机场码头","district":"宝安区","value":"135","ObservedTime":"2020/4/9 13:55"},
{"ID":"407","Name":"福永三围涌","SeaCoast":"深圳珠江口岸段","Section":"3","ForcastStation":"17","lng":"113.828974","lat":"22.6121568","height":"7.21","珠基高程":"6.47","land":"机场码头","district":"宝安区","value":"135","ObservedTime":"2020/4/9 13:55"},
{"ID":"408","Name":"福永三围涌","SeaCoast":"深圳珠江口岸段","Section":"3","ForcastStation":"17","lng":"113.8324181","lat":"22.61382551","height":"7.25","珠基高程":"6.51","land":"机场码头","district":"宝安区","value":"135","ObservedTime":"2020/4/9 13:55"},
{"ID":"409","Name":"机场南侧堆场码头","SeaCoast":"深圳珠江口岸段","Section":"3","ForcastStation":"17","lng":"113.8362821","lat":"22.61409316","height":"4.13","珠基高程":"3.39","land":"机场码头","district":"宝安区","value":"135","ObservedTime":"2020/4/9 13:55"},
{"ID":"410","Name":"机场南侧堆场码头","SeaCoast":"深圳珠江口岸段","Section":"3","ForcastStation":"17","lng":"113.832871","lat":"22.61235068","height":"3.33","珠基高程":"2.58","land":"机场码头","district":"宝安区","value":"135","ObservedTime":"2020/4/9 13:55"},
{"ID":"411","Name":"机场南侧堆场码头","SeaCoast":"深圳珠江口岸段","Section":"3","ForcastStation":"17","lng":"113.8285629","lat":"22.61065119","height":"3.42","珠基高程":"2.68","land":"机场码头","district":"宝安区","value":"135","ObservedTime":"2020/4/9 13:55"},
{"ID":"412","Name":"机场南侧堆场码头","SeaCoast":"深圳珠江口岸段","Section":"3","ForcastStation":"17","lng":"113.832396","lat":"22.61011365","height":"3.83","珠基高程":"3.08","land":"机场码头","district":"宝安区","value":"135","ObservedTime":"2020/4/9 13:55"},
{"ID":"413","Name":"新涌河口","SeaCoast":"深圳珠江口岸段","Section":"3","ForcastStation":"17","lng":"113.8362724","lat":"22.61019445","height":"4.02","珠基高程":"3.28","land":"机场码头","district":"宝安区","value":"135","ObservedTime":"2020/4/9 13:55"},
{"ID":"414","Name":"西海堤铁岗排洪河口处","SeaCoast":"深圳珠江口岸段","Section":"3","ForcastStation":"17","lng":"113.8360813","lat":"22.60658267","height":"3.58","珠基高程":"2.83","land":"机场码头","district":"宝安区","value":"135","ObservedTime":"2020/4/9 13:55"},
{"ID":"415","Name":"铁岗排洪河口","SeaCoast":"深圳珠江口岸段","Section":"3","ForcastStation":"17","lng":"113.8377002","lat":"22.60332503","height":"4.62","珠基高程":"3.88","land":"机场码头","district":"宝安区","value":"135","ObservedTime":"2020/4/9 13:55"},
{"ID":"416","Name":"西海堤南昌涌处","SeaCoast":"深圳珠江口岸段","Section":"3","ForcastStation":"18","lng":"113.839251","lat":"22.60001705","height":"3.72","珠基高程":"2.98","land":"机场码头","district":"宝安区","value":"136","ObservedTime":"2020/4/9 13:55"},
{"ID":"417","Name":"西海堤近金湾大道","SeaCoast":"深圳珠江口岸段","Section":"3","ForcastStation":"18","lng":"113.841098","lat":"22.59686845","height":"4.03","珠基高程":"3.29","land":"机场码头","district":"宝安区","value":"136","ObservedTime":"2020/4/9 13:55"},
{"ID":"418","Name":"西海堤近金湾大道","SeaCoast":"深圳珠江口岸段","Section":"3","ForcastStation":"18","lng":"113.8429473","lat":"22.59371127","height":"4.03","珠基高程":"3.29","land":"机场码头","district":"宝安区","value":"136","ObservedTime":"2020/4/9 13:55"},
{"ID":"419","Name":"金湾大道","SeaCoast":"深圳珠江口岸段","Section":"3","ForcastStation":"18","lng":"113.8449539","lat":"22.59064494","height":"4.62","珠基高程":"3.88","land":"大铲湾码头","district":"宝安区","value":"136","ObservedTime":"2020/4/9 13:55"},
{"ID":"420","Name":"金湾大道","SeaCoast":"深圳珠江口岸段","Section":"3","ForcastStation":"19","lng":"113.8430665","lat":"22.58747125","height":"4.92","珠基高程":"4.18","land":"大铲湾码头","district":"宝安区","value":"135","ObservedTime":"2020/4/9 13:55"},
{"ID":"421","Name":"金湾大道","SeaCoast":"深圳珠江口岸段","Section":"3","ForcastStation":"19","lng":"113.8433076","lat":"22.58386826","height":"4.93","珠基高程":"4.18","land":"大铲湾码头","district":"宝安区","value":"135","ObservedTime":"2020/4/9 13:55"},
{"ID":"422","Name":"金湾大道","SeaCoast":"深圳珠江口岸段","Section":"3","ForcastStation":"19","lng":"113.8461766","lat":"22.58148037","height":"5.12","珠基高程":"4.38","land":"大铲湾码头","district":"宝安区","value":"135","ObservedTime":"2020/4/9 13:55"},
{"ID":"423","Name":"金湾大道","SeaCoast":"深圳珠江口岸段","Section":"3","ForcastStation":"19","lng":"113.8490568","lat":"22.57910397","height":"5.13","珠基高程":"4.38","land":"大铲湾码头","district":"宝安区","value":"135","ObservedTime":"2020/4/9 13:55"},
{"ID":"424","Name":"金湾大道","SeaCoast":"深圳珠江口岸段","Section":"3","ForcastStation":"20","lng":"113.8519246","lat":"22.5767352","height":"5.04","珠基高程":"4.29","land":"大铲湾码头","district":"宝安区","value":"135","ObservedTime":"2020/4/9 13:55"},
{"ID":"425","Name":"金湾大道","SeaCoast":"深圳珠江口岸段","Section":"3","ForcastStation":"20","lng":"113.8542068","lat":"22.57385994","height":"5.43","珠基高程":"4.69","land":"大铲湾码头","district":"宝安区","value":"135","ObservedTime":"2020/4/9 13:55"},
{"ID":"426","Name":"金湾大道","SeaCoast":"深圳珠江口岸段","Section":"3","ForcastStation":"20","lng":"113.8560799","lat":"22.570734","height":"5.47","珠基高程":"4.72","land":"大铲湾码头","district":"宝安区","value":"135","ObservedTime":"2020/4/9 13:55"},
{"ID":"427","Name":"金湾大道","SeaCoast":"深圳珠江口岸段","Section":"3","ForcastStation":"21","lng":"113.8583935","lat":"22.56786776","height":"5.36","珠基高程":"4.61","land":"大铲湾码头","district":"宝安区","value":"135","ObservedTime":"2020/4/9 13:55"},
{"ID":"428","Name":"金湾大道","SeaCoast":"深圳珠江口岸段","Section":"3","ForcastStation":"21","lng":"113.8608235","lat":"22.56510317","height":"5.13","珠基高程":"4.38","land":"大铲湾码头","district":"宝安区","value":"135","ObservedTime":"2020/4/9 13:55"},
{"ID":"429","Name":"金湾大道","SeaCoast":"深圳珠江口岸段","Section":"3","ForcastStation":"21","lng":"113.8633587","lat":"22.56241859","height":"5.32","珠基高程":"4.58","land":"大铲湾码头","district":"宝安区","value":"135","ObservedTime":"2020/4/9 13:55"},
{"ID":"430","Name":"金湾大道","SeaCoast":"深圳珠江口岸段","Section":"3","ForcastStation":"21","lng":"113.8650295","lat":"22.55918899","height":"5.13","珠基高程":"4.39","land":"大铲湾码头","district":"宝安区","value":"135","ObservedTime":"2020/4/9 13:55"},
{"ID":"431","Name":"金湾大道","SeaCoast":"深圳珠江口岸段","Section":"3","ForcastStation":"22","lng":"113.866148","lat":"22.55573997","height":"5.12","珠基高程":"4.38","land":"大铲湾码头","district":"宝安区","value":"135","ObservedTime":"2020/4/9 13:55"},
{"ID":"432","Name":"金湾大道","SeaCoast":"深圳珠江口岸段","Section":"3","ForcastStation":"22","lng":"113.8673137","lat":"22.55231123","height":"5.12","珠基高程":"4.38","land":"大铲湾码头","district":"宝安区","value":"135","ObservedTime":"2020/4/9 13:55"},
{"ID":"433","Name":"金湾大道","SeaCoast":"深圳珠江口岸段","Section":"3","ForcastStation":"22","lng":"113.8685087","lat":"22.54889559","height":"5.13","珠基高程":"4.39","land":"大铲湾码头","district":"宝安区","value":"135","ObservedTime":"2020/4/9 13:55"},
{"ID":"434","Name":"金湾大道","SeaCoast":"深圳珠江口岸段","Section":"3","ForcastStation":"22","lng":"113.8696082","lat":"22.54523376","height":"5.07","珠基高程":"4.32","land":"大铲湾码头","district":"宝安区","value":"135","ObservedTime":"2020/4/9 13:55"},
{"ID":"435","Name":"大铲湾港区码头","SeaCoast":"深圳珠江口岸段","Section":"3","ForcastStation":"22","lng":"113.8643179","lat":"22.54388594","height":"4.63","珠基高程":"3.88","land":"大铲湾码头","district":"宝安区","value":"135","ObservedTime":"2020/4/9 13:55"},
{"ID":"436","Name":"大铲湾港区码头","SeaCoast":"深圳珠江口岸段","Section":"4","ForcastStation":"23","lng":"113.8653746","lat":"22.54042851","height":"4.62","珠基高程":"3.88","land":"大铲湾码头","district":"宝安区","value":"135","ObservedTime":"2020/4/9 13:55"},
{"ID":"437","Name":"大铲湾港区码头","SeaCoast":"深圳珠江口岸段","Section":"4","ForcastStation":"23","lng":"113.8664442","lat":"22.53696847","height":"4.69","珠基高程":"3.94","land":"大铲湾码头","district":"宝安区","value":"135","ObservedTime":"2020/4/9 13:55"},
{"ID":"438","Name":"大铲湾港区码头","SeaCoast":"深圳珠江口岸段","Section":"4","ForcastStation":"23","lng":"113.8675121","lat":"22.53351531","height":"4.59","珠基高程":"3.85","land":"大铲湾码头","district":"宝安区","value":"135","ObservedTime":"2020/4/9 13:55"},
{"ID":"439","Name":"大铲湾港区码头","SeaCoast":"深圳珠江口岸段","Section":"4","ForcastStation":"24","lng":"113.8691942","lat":"22.52807215","height":"4.65","珠基高程":"3.91","land":"大铲湾码头","district":"宝安区","value":"134","ObservedTime":"2020/4/9 13:55"},
{"ID":"440","Name":"大铲湾港区码头","SeaCoast":"深圳珠江口岸段","Section":"4","ForcastStation":"24","lng":"113.8727977","lat":"22.52942623","height":"4.67","珠基高程":"3.92","land":"大铲湾码头","district":"宝安区","value":"134","ObservedTime":"2020/4/9 13:55"},
{"ID":"441","Name":"大铲湾港区码头","SeaCoast":"深圳珠江口岸段","Section":"4","ForcastStation":"24","lng":"113.8759594","lat":"22.53154718","height":"4.43","珠基高程":"3.68","land":"大铲湾码头","district":"宝安区","value":"134","ObservedTime":"2020/4/9 13:55"},
{"ID":"442","Name":"大铲湾港区码头","SeaCoast":"深圳珠江口岸段","Section":"4","ForcastStation":"24","lng":"113.8784275","lat":"22.5343397","height":"4.47","珠基高程":"3.72","land":"大铲湾码头","district":"宝安区","value":"134","ObservedTime":"2020/4/9 13:55"},
{"ID":"443","Name":"大铲湾港区码头","SeaCoast":"深圳珠江口岸段","Section":"4","ForcastStation":"25","lng":"113.8773621","lat":"22.53780421","height":"4.56","珠基高程":"3.82","land":"大铲湾码头","district":"宝安区","value":"135","ObservedTime":"2020/4/9 13:55"},
{"ID":"444","Name":"大铲湾港区码头","SeaCoast":"深圳珠江口岸段","Section":"4","ForcastStation":"25","lng":"113.876315","lat":"22.5412328","height":"4.36","珠基高程":"3.61","land":"大铲湾码头","district":"宝安区","value":"135","ObservedTime":"2020/4/9 13:55"},
{"ID":"445","Name":"大铲湾港区码头","SeaCoast":"深圳珠江口岸段","Section":"4","ForcastStation":"25","lng":"113.8752232","lat":"22.54473097","height":"4.35","珠基高程":"3.61","land":"大铲湾码头","district":"宝安区","value":"135","ObservedTime":"2020/4/9 13:55"},
{"ID":"446","Name":"大铲湾港区码头","SeaCoast":"深圳珠江口岸段","Section":"4","ForcastStation":"25","lng":"113.8741583","lat":"22.54819171","height":"4.4","珠基高程":"3.66","land":"大铲湾码头","district":"宝安区","value":"135","ObservedTime":"2020/4/9 13:55"},
{"ID":"447","Name":"大铲湾港区码头","SeaCoast":"深圳珠江口岸段","Section":"4","ForcastStation":"25","lng":"113.8730894","lat":"22.55165409","height":"4.37","珠基高程":"3.62","land":"大铲湾码头","district":"宝安区","value":"135","ObservedTime":"2020/4/9 13:55"},
{"ID":"448","Name":"大铲湾港区码头","SeaCoast":"深圳珠江口岸段","Section":"4","ForcastStation":"26","lng":"113.8720161","lat":"22.55511431","height":"4.16","珠基高程":"3.42","land":"大铲湾码头","district":"宝安区","value":"135","ObservedTime":"2020/4/9 13:55"},
{"ID":"449","Name":"大铲湾港区码头","SeaCoast":"深圳珠江口岸段","Section":"4","ForcastStation":"26","lng":"113.8721449","lat":"22.55873087","height":"4.02","珠基高程":"3.28","land":"大铲湾码头","district":"宝安区","value":"135","ObservedTime":"2020/4/9 13:55"},
{"ID":"450","Name":"宝安中心区填海区","SeaCoast":"深圳珠江口岸段","Section":"4","ForcastStation":"26","lng":"113.8747665","lat":"22.56252573","height":"4.53","珠基高程":"3.78","land":"大铲湾码头","district":"宝安区","value":"135","ObservedTime":"2020/4/9 13:55"},
{"ID":"451","Name":"宝安中心区填海区","SeaCoast":"深圳珠江口岸段","Section":"4","ForcastStation":"26","lng":"113.8750544","lat":"22.55789131","height":"5.02","珠基高程":"4.28","land":"大铲湾码头","district":"宝安区","value":"135","ObservedTime":"2020/4/9 13:55"},
{"ID":"452","Name":"宝安中心区填海区","SeaCoast":"深圳珠江口岸段","Section":"4","ForcastStation":"26","lng":"113.8771176","lat":"22.55481469","height":"7.42","珠基高程":"6.68","land":"大铲湾码头","district":"宝安区","value":"135","ObservedTime":"2020/4/9 13:55"},
{"ID":"453","Name":"宝安中心区填海区","SeaCoast":"深圳珠江口岸段","Section":"4","ForcastStation":"26","lng":"113.8801479","lat":"22.55262396","height":"5.03","珠基高程":"4.29","land":"大铲湾码头","district":"宝安区","value":"135","ObservedTime":"2020/4/9 13:55"},
{"ID":"454","Name":"宝安中心区填海区","SeaCoast":"深圳珠江口岸段","Section":"4","ForcastStation":"26","lng":"113.8817165","lat":"22.54933232","height":"8.07","珠基高程":"7.32","land":"大铲湾码头","district":"宝安区","value":"135","ObservedTime":"2020/4/9 13:55"},
{"ID":"455","Name":"宝安中心区填海区","SeaCoast":"深圳珠江口岸段","Section":"4","ForcastStation":"26","lng":"113.8838532","lat":"22.54607041","height":"4.22","珠基高程":"3.47","land":"大铲湾码头","district":"宝安区","value":"135","ObservedTime":"2020/4/9 13:55"},
{"ID":"456","Name":"宝安中心区海堤","SeaCoast":"深圳珠江口岸段","Section":"4","ForcastStation":"26","lng":"113.8862901","lat":"22.54884181","height":"4.26","珠基高程":"3.52","land":"大铲湾码头","district":"宝安区","value":"135","ObservedTime":"2020/4/9 13:55"},
{"ID":"457","Name":"宝安中心区海堤","SeaCoast":"深圳珠江口岸段","Section":"4","ForcastStation":"26","lng":"113.8895058","lat":"22.54845185","height":"4.26","珠基高程":"3.52","land":"大铲湾码头","district":"宝安区","value":"135","ObservedTime":"2020/4/9 13:55"},
{"ID":"458","Name":"宝安中心区海堤","SeaCoast":"深圳珠江口岸段","Section":"4","ForcastStation":"27","lng":"113.893268","lat":"22.54754744","height":"4.18","珠基高程":"3.43","land":"大铲湾码头","district":"宝安区","value":"135","ObservedTime":"2020/4/9 13:55"},
{"ID":"459","Name":"宝安中心区新洲河口","SeaCoast":"深圳珠江口岸段","Section":"4","ForcastStation":"27","lng":"113.8961624","lat":"22.54852302","height":"4.42","珠基高程":"3.68","land":"大铲湾码头","district":"宝安区","value":"135","ObservedTime":"2020/4/9 13:55"},
{"ID":"460","Name":"宝安中心区新洲河口","SeaCoast":"深圳珠江口岸段","Section":"4","ForcastStation":"28","lng":"113.8947217","lat":"22.54633204","height":"4","珠基高程":"3.26","land":"大铲湾码头","district":"宝安区","value":"135","ObservedTime":"2020/4/9 13:55"},
{"ID":"461","Name":"前海填海区","SeaCoast":"深圳珠江口岸段","Section":"4","ForcastStation":"28","lng":"113.8965538","lat":"22.54312974","height":"4.36","珠基高程":"3.62","land":"前海湾","district":"南山区","value":"135","ObservedTime":"2020/4/9 13:55"},
{"ID":"462","Name":"前海填海区","SeaCoast":"深圳珠江口岸段","Section":"4","ForcastStation":"28","lng":"113.8972695","lat":"22.53957144","height":"3.92","珠基高程":"3.17","land":"前海湾","district":"南山区","value":"135","ObservedTime":"2020/4/9 13:55"},
{"ID":"463","Name":"前海填海区","SeaCoast":"深圳珠江口岸段","Section":"4","ForcastStation":"28","lng":"113.8988909","lat":"22.53525169","height":"5.75","珠基高程":"5.01","land":"前海湾","district":"南山区","value":"135","ObservedTime":"2020/4/9 13:55"},
{"ID":"464","Name":"前海填海区","SeaCoast":"深圳珠江口岸段","Section":"4","ForcastStation":"28","lng":"113.8969928","lat":"22.5359751","height":"5.48","珠基高程":"4.73","land":"前海湾","district":"南山区","value":"135","ObservedTime":"2020/4/9 13:55"},
{"ID":"465","Name":"前海填海区","SeaCoast":"深圳珠江口岸段","Section":"5","ForcastStation":"29","lng":"113.8955375","lat":"22.53263321","height":"5.25","珠基高程":"4.51","land":"前海湾","district":"南山区","value":"135","ObservedTime":"2020/4/9 13:55"},
{"ID":"466","Name":"前海填海区","SeaCoast":"深圳珠江口岸段","Section":"5","ForcastStation":"29","lng":"113.8931048","lat":"22.52984212","height":"4.15","珠基高程":"3.41","land":"前海湾","district":"南山区","value":"135","ObservedTime":"2020/4/9 13:55"},
{"ID":"467","Name":"前海填海区","SeaCoast":"深圳珠江口岸段","Section":"5","ForcastStation":"29","lng":"113.8925188","lat":"22.5264447","height":"4.03","珠基高程":"3.28","land":"前海湾","district":"南山区","value":"135","ObservedTime":"2020/4/9 13:55"},
{"ID":"468","Name":"前海填海区","SeaCoast":"深圳珠江口岸段","Section":"5","ForcastStation":"29","lng":"113.8898829","lat":"22.52784186","height":"5.41","珠基高程":"4.67","land":"前海湾","district":"南山区","value":"135","ObservedTime":"2020/4/9 13:55"},
{"ID":"469","Name":"前海填海区","SeaCoast":"深圳珠江口岸段","Section":"5","ForcastStation":"29","lng":"113.8865494","lat":"22.5259957","height":"7.73","珠基高程":"6.99","land":"前海湾","district":"南山区","value":"135","ObservedTime":"2020/4/9 13:55"},
{"ID":"470","Name":"前海填海区","SeaCoast":"深圳珠江口岸段","Section":"5","ForcastStation":"30","lng":"113.8831746","lat":"22.52421093","height":"6.42","珠基高程":"5.68","land":"前海湾","district":"南山区","value":"135","ObservedTime":"2020/4/9 13:55"},
{"ID":"471","Name":"四和智诚沙场海堤","SeaCoast":"深圳珠江口岸段","Section":"5","ForcastStation":"30","lng":"113.8798061","lat":"22.52241381","height":"4.98","珠基高程":"4.24","land":"前海湾","district":"南山区","value":"135","ObservedTime":"2020/4/9 13:55"},
{"ID":"472","Name":"振惠建混凝土沙场海堤","SeaCoast":"深圳珠江口岸段","Section":"5","ForcastStation":"30","lng":"113.8764663","lat":"22.52057957","height":"4.85","珠基高程":"4.11","land":"前海湾","district":"南山区","value":"135","ObservedTime":"2020/4/9 13:55"},
{"ID":"473","Name":"西部政府码头","SeaCoast":"深圳珠江口岸段","Section":"5","ForcastStation":"31","lng":"113.8733235","lat":"22.51789609","height":"4.76","珠基高程":"4.01","land":"前海湾","district":"南山区","value":"134","ObservedTime":"2020/4/9 13:55"},
{"ID":"474","Name":"驻港部队码头","SeaCoast":"深圳珠江口岸段","Section":"5","ForcastStation":"32","lng":"113.8744937","lat":"22.51446626","height":"3.93","珠基高程":"3.18","land":"前海湾","district":"南山区","value":"134","ObservedTime":"2020/4/9 13:55"},
{"ID":"475","Name":"中油美视妈湾油港","SeaCoast":"深圳珠江口岸段","Section":"5","ForcastStation":"33","lng":"113.8750714","lat":"22.51089998","height":"5.52","珠基高程":"4.78","land":"前海湾","district":"南山区","value":"133","ObservedTime":"2020/4/9 13:55"},
{"ID":"476","Name":"妈湾油库码头","SeaCoast":"深圳珠江口岸段","Section":"5","ForcastStation":"33","lng":"113.8758071","lat":"22.50736238","height":"4.02","珠基高程":"3.28","land":"前海湾","district":"南山区","value":"133","ObservedTime":"2020/4/9 13:55"},
{"ID":"477","Name":"妈湾港0号码头","SeaCoast":"深圳珠江口岸段","Section":"5","ForcastStation":"34","lng":"113.8749449","lat":"22.50383273","height":"4.26","珠基高程":"3.51","land":"前海湾","district":"南山区","value":"133","ObservedTime":"2020/4/9 13:55"},
{"ID":"478","Name":"妈湾港1号码头","SeaCoast":"深圳珠江口岸段","Section":"5","ForcastStation":"34","lng":"113.8751897","lat":"22.50023235","height":"4.32","珠基高程":"3.58","land":"前海湾","district":"南山区","value":"133","ObservedTime":"2020/4/9 13:55"},
{"ID":"479","Name":"妈湾港2号码头","SeaCoast":"深圳珠江口岸段","Section":"5","ForcastStation":"34","lng":"113.8771432","lat":"22.49899049","height":"4.25","珠基高程":"3.51","land":"前海湾","district":"南山区","value":"133","ObservedTime":"2020/4/9 13:55"},
{"ID":"480","Name":"妈湾港2号码头","SeaCoast":"深圳珠江口岸段","Section":"5","ForcastStation":"34","lng":"113.8762073","lat":"22.49728064","height":"3.93","珠基高程":"3.18","land":"前海湾","district":"南山区","value":"133","ObservedTime":"2020/4/9 13:55"},
{"ID":"481","Name":"前海湾保税港区码头","SeaCoast":"深圳珠江口岸段","Section":"5","ForcastStation":"34","lng":"113.8774056","lat":"22.49385464","height":"4.12","珠基高程":"3.38","land":"前海湾","district":"南山区","value":"133","ObservedTime":"2020/4/9 13:55"},
{"ID":"482","Name":"前海湾保税港区码头","SeaCoast":"深圳珠江口岸段","Section":"5","ForcastStation":"35","lng":"113.8785965","lat":"22.49040588","height":"4.2","珠基高程":"3.46","land":"前海湾","district":"南山区","value":"132","ObservedTime":"2020/4/9 13:55"},
{"ID":"483","Name":"前海湾保税港区码头","SeaCoast":"深圳珠江口岸段","Section":"5","ForcastStation":"35","lng":"113.8797787","lat":"22.48698533","height":"4.11","珠基高程":"3.37","land":"前海湾","district":"南山区","value":"132","ObservedTime":"2020/4/9 13:55"},
{"ID":"484","Name":"妈湾电厂码头","SeaCoast":"深圳珠江口岸段","Section":"5","ForcastStation":"36","lng":"113.8809685","lat":"22.48355535","height":"4.21","珠基高程":"3.47","land":"赤湾","district":"南山区","value":"132","ObservedTime":"2020/4/9 13:55"},
{"ID":"485","Name":"妈湾电厂码头","SeaCoast":"深圳珠江口岸段","Section":"5","ForcastStation":"36","lng":"113.8821664","lat":"22.48012212","height":"4.12","珠基高程":"3.38","land":"赤湾","district":"南山区","value":"132","ObservedTime":"2020/4/9 13:55"},
{"ID":"486","Name":"赤湾集装箱码头","SeaCoast":"深圳珠江口岸段","Section":"5","ForcastStation":"36","lng":"113.8834862","lat":"22.47672876","height":"4.83","珠基高程":"4.08","land":"赤湾","district":"南山区","value":"132","ObservedTime":"2020/4/9 13:55"},
{"ID":"487","Name":"赤湾集装箱码头","SeaCoast":"深圳珠江口岸段","Section":"5","ForcastStation":"36","lng":"113.8851596","lat":"22.47347386","height":"4.53","珠基高程":"3.78","land":"赤湾","district":"南山区","value":"132","ObservedTime":"2020/4/9 13:55"},
{"ID":"488","Name":"赤湾集装箱码头","SeaCoast":"深圳珠江口岸段","Section":"5","ForcastStation":"37","lng":"113.8868421","lat":"22.47022003","height":"4.51","珠基高程":"3.77","land":"赤湾","district":"南山区","value":"131","ObservedTime":"2020/4/9 13:55"},
{"ID":"489","Name":"赤湾集装箱码头","SeaCoast":"深圳珠江口岸段","Section":"5","ForcastStation":"37","lng":"113.8885342","lat":"22.46696803","height":"4.54","珠基高程":"3.8","land":"赤湾","district":"南山区","value":"131","ObservedTime":"2020/4/9 13:55"},
{"ID":"490","Name":"赤湾集装箱码头","SeaCoast":"深圳珠江口岸段","Section":"5","ForcastStation":"37","lng":"113.8902252","lat":"22.46370431","height":"4.57","珠基高程":"3.82","land":"赤湾","district":"南山区","value":"131","ObservedTime":"2020/4/9 13:55"},
{"ID":"491","Name":"赤湾集装箱码头","SeaCoast":"深圳珠江口岸段","Section":"6","ForcastStation":"38","lng":"113.8917177","lat":"22.46070041","height":"4.54","珠基高程":"3.79","land":"赤湾","district":"南山区","value":"130","ObservedTime":"2020/4/9 13:55"},
{"ID":"492","Name":"赤湾集装箱码头","SeaCoast":"深圳珠江口岸段","Section":"6","ForcastStation":"38","lng":"113.8930547","lat":"22.46128863","height":"4.55","珠基高程":"3.8","land":"赤湾","district":"南山区","value":"130","ObservedTime":"2020/4/9 13:55"},
{"ID":"493","Name":"赤湾集装箱码头","SeaCoast":"深圳珠江口岸段","Section":"6","ForcastStation":"38","lng":"113.8928331","lat":"22.46415167","height":"4.52","珠基高程":"3.78","land":"赤湾","district":"南山区","value":"130","ObservedTime":"2020/4/9 13:55"},
{"ID":"494","Name":"赤湾集装箱码头","SeaCoast":"深圳珠江口岸段","Section":"6","ForcastStation":"38","lng":"113.892529","lat":"22.4677508","height":"4.02","珠基高程":"3.28","land":"赤湾","district":"南山区","value":"130","ObservedTime":"2020/4/9 13:55"},
{"ID":"495","Name":"赤湾集装箱码头","SeaCoast":"深圳珠江口岸段","Section":"6","ForcastStation":"39","lng":"113.8922152","lat":"22.47136442","height":"3.96","珠基高程":"3.21","land":"赤湾","district":"南山区","value":"130","ObservedTime":"2020/4/9 13:55"},
{"ID":"496","Name":"赤湾集装箱码头","SeaCoast":"深圳珠江口岸段","Section":"6","ForcastStation":"39","lng":"113.8912696","lat":"22.47486309","height":"4.12","珠基高程":"3.37","land":"赤湾","district":"南山区","value":"130","ObservedTime":"2020/4/9 13:55"},
{"ID":"497","Name":"赤湾集装箱码头","SeaCoast":"深圳珠江口岸段","Section":"6","ForcastStation":"40","lng":"113.8884142","lat":"22.47847043","height":"3.94","珠基高程":"3.19","land":"赤湾","district":"南山区","value":"130","ObservedTime":"2020/4/9 13:55"},
{"ID":"498","Name":"赤湾集装箱码头","SeaCoast":"深圳珠江口岸段","Section":"6","ForcastStation":"40","lng":"113.8904474","lat":"22.48239067","height":"4.12","珠基高程":"3.38","land":"赤湾","district":"南山区","value":"130","ObservedTime":"2020/4/9 13:55"},
{"ID":"499","Name":"赤湾集装箱码头","SeaCoast":"深圳珠江口岸段","Section":"6","ForcastStation":"40","lng":"113.8936316","lat":"22.48093558","height":"4.06","珠基高程":"3.32","land":"赤湾","district":"南山区","value":"130","ObservedTime":"2020/4/9 13:55"},
{"ID":"500","Name":"赤湾集装箱码头","SeaCoast":"深圳珠江口岸段","Section":"6","ForcastStation":"40","lng":"113.8971303","lat":"22.47934152","height":"3.83","珠基高程":"3.08","land":"赤湾","district":"南山区","value":"130","ObservedTime":"2020/4/9 13:55"},
{"ID":"501","Name":"赤湾胜宝旺海堤","SeaCoast":"深圳珠江口岸段","Section":"6","ForcastStation":"41","lng":"113.8947351","lat":"22.47653531","height":"4.25","珠基高程":"3.51","land":"赤湾","district":"南山区","value":"130","ObservedTime":"2020/4/9 13:55"},
{"ID":"502","Name":"赤湾壳牌石油公司海堤","SeaCoast":"深圳珠江口岸段","Section":"6","ForcastStation":"41","lng":"113.894593","lat":"22.47293848","height":"4.26","珠基高程":"3.51","land":"赤湾","district":"南山区","value":"130","ObservedTime":"2020/4/9 13:55"},
{"ID":"503","Name":"华英石油联营有限公司海","SeaCoast":"深圳珠江口岸段","Section":"6","ForcastStation":"42","lng":"113.8979183","lat":"22.47104895","height":"4.73","珠基高程":"3.98","land":"赤湾","district":"南山区","value":"130","ObservedTime":"2020/4/9 13:55"},
{"ID":"504","Name":"深圳海事局快速反应基地","SeaCoast":"深圳珠江口岸段","Section":"6","ForcastStation":"42","lng":"113.8990079","lat":"22.46756747","height":"4.25","珠基高程":"3.51","land":"赤湾","district":"南山区","value":"130","ObservedTime":"2020/4/9 13:55"},
{"ID":"505","Name":"蛇口集装箱码头","SeaCoast":"深圳珠江口岸段","Section":"6","ForcastStation":"42","lng":"113.8977549","lat":"22.46415894","height":"4.36","珠基高程":"3.61","land":"蛇口","district":"南山区","value":"130","ObservedTime":"2020/4/9 13:55"},
{"ID":"506","Name":"蛇口集装箱码头","SeaCoast":"深圳珠江口岸段","Section":"6","ForcastStation":"43","lng":"113.8981599","lat":"22.46056004","height":"4.37","珠基高程":"3.62","land":"蛇口","district":"南山区","value":"130","ObservedTime":"2020/4/9 13:55"},
{"ID":"507","Name":"蛇口集装箱码头","SeaCoast":"深圳珠江口岸段","Section":"6","ForcastStation":"43","lng":"113.8964261","lat":"22.45841106","height":"4.33","珠基高程":"3.58","land":"蛇口","district":"南山区","value":"130","ObservedTime":"2020/4/9 13:55"},
{"ID":"508","Name":"蛇口集装箱码头","SeaCoast":"深圳珠江口岸段","Section":"6","ForcastStation":"43","lng":"113.8967453","lat":"22.45480645","height":"4.41","珠基高程":"3.67","land":"蛇口","district":"南山区","value":"130","ObservedTime":"2020/4/9 13:55"},
{"ID":"509","Name":"蛇口集装箱码头","SeaCoast":"深圳珠江口岸段","Section":"6","ForcastStation":"43","lng":"113.8971299","lat":"22.45039524","height":"4.32","珠基高程":"3.58","land":"蛇口","district":"南山区","value":"130","ObservedTime":"2020/4/9 13:55"},
{"ID":"510","Name":"蛇口集装箱码头","SeaCoast":"深圳湾岸段","Section":"6","ForcastStation":"44","lng":"113.8982047","lat":"22.44965963","height":"4.32","珠基高程":"3.58","land":"蛇口","district":"南山区","value":"130","ObservedTime":"2020/4/9 13:55"},
{"ID":"511","Name":"蛇口集装箱码头","SeaCoast":"深圳湾岸段","Section":"6","ForcastStation":"44","lng":"113.9003782","lat":"22.45233326","height":"4.27","珠基高程":"3.52","land":"蛇口","district":"南山区","value":"130","ObservedTime":"2020/4/9 13:55"},
{"ID":"512","Name":"蛇口集装箱码头","SeaCoast":"深圳湾岸段","Section":"6","ForcastStation":"44","lng":"113.9027205","lat":"22.45521378","height":"4.3","珠基高程":"3.56","land":"蛇口","district":"南山区","value":"130","ObservedTime":"2020/4/9 13:55"},
{"ID":"513","Name":"蛇口集装箱码头","SeaCoast":"深圳湾岸段","Section":"6","ForcastStation":"44","lng":"113.9050537","lat":"22.45806879","height":"4.63","珠基高程":"3.88","land":"蛇口","district":"南山区","value":"130","ObservedTime":"2020/4/9 13:55"},
{"ID":"514","Name":"蛇口集装箱码头","SeaCoast":"深圳湾岸段","Section":"6","ForcastStation":"45","lng":"113.9073467","lat":"22.46089768","height":"4.43","珠基高程":"3.68","land":"蛇口","district":"南山区","value":"130","ObservedTime":"2020/4/9 13:55"},
{"ID":"515","Name":"蛇口集装箱码头","SeaCoast":"深圳湾岸段","Section":"6","ForcastStation":"45","lng":"113.9065497","lat":"22.46462704","height":"4.02","珠基高程":"3.28","land":"蛇口","district":"南山区","value":"130","ObservedTime":"2020/4/9 13:55"},
{"ID":"516","Name":"蛇口集装箱码头","SeaCoast":"深圳湾岸段","Section":"6","ForcastStation":"46","lng":"113.9055007","lat":"22.4696191","height":"3.83","珠基高程":"3.08","land":"蛇口","district":"南山区","value":"130","ObservedTime":"2020/4/9 13:55"},
{"ID":"517","Name":"招商港务12号泊位","SeaCoast":"深圳湾岸段","Section":"6","ForcastStation":"46","lng":"113.9082252","lat":"22.47110934","height":"3.79","珠基高程":"3.05","land":"蛇口","district":"南山区","value":"130","ObservedTime":"2020/4/9 13:55"},
{"ID":"518","Name":"招商港务12号泊位","SeaCoast":"深圳湾岸段","Section":"6","ForcastStation":"47","lng":"113.9102128","lat":"22.46873688","height":"3.63","珠基高程":"2.88","land":"蛇口","district":"南山区","value":"130","ObservedTime":"2020/4/9 13:55"},
{"ID":"519","Name":"蛇口招商港务码头","SeaCoast":"深圳湾岸段","Section":"6","ForcastStation":"47","lng":"113.9132746","lat":"22.47092241","height":"3.53","珠基高程":"2.78","land":"蛇口","district":"南山区","value":"130","ObservedTime":"2020/4/9 13:55"},
{"ID":"520","Name":"蛇口招商港务码头","SeaCoast":"深圳湾岸段","Section":"6","ForcastStation":"47","lng":"113.9154503","lat":"22.47247576","height":"3.39","珠基高程":"2.64","land":"蛇口","district":"南山区","value":"130","ObservedTime":"2020/4/9 13:55"},
{"ID":"521","Name":"蛇口招商港务码头","SeaCoast":"深圳湾岸段","Section":"7","ForcastStation":"48","lng":"113.9125605","lat":"22.47592666","height":"3.61","珠基高程":"2.86","land":"蛇口","district":"南山区","value":"130","ObservedTime":"2020/4/9 13:55"},
{"ID":"522","Name":"蛇口招商港务码头","SeaCoast":"深圳湾岸段","Section":"7","ForcastStation":"48","lng":"113.9148532","lat":"22.47808078","height":"4.13","珠基高程":"3.38","land":"蛇口","district":"南山区","value":"130","ObservedTime":"2020/4/9 13:55"},
{"ID":"523","Name":"蛇口招商港务太子湾","SeaCoast":"深圳湾岸段","Section":"7","ForcastStation":"48","lng":"113.9172652","lat":"22.47519685","height":"4.53","珠基高程":"3.78","land":"蛇口","district":"南山区","value":"130","ObservedTime":"2020/4/9 13:55"},
{"ID":"524","Name":"蛇口招商港务太子湾","SeaCoast":"深圳湾岸段","Section":"7","ForcastStation":"49","lng":"113.9204824","lat":"22.47333547","height":"4.83","珠基高程":"4.08","land":"蛇口","district":"南山区","value":"130","ObservedTime":"2020/4/9 13:55"},
{"ID":"525","Name":"蛇口招商港务太子湾","SeaCoast":"深圳湾岸段","Section":"7","ForcastStation":"49","lng":"113.9231606","lat":"22.47596457","height":"5.12","珠基高程":"4.38","land":"蛇口","district":"南山区","value":"130","ObservedTime":"2020/4/9 13:55"},
{"ID":"526","Name":"蛇口招商港务太子湾","SeaCoast":"深圳湾岸段","Section":"7","ForcastStation":"49","lng":"113.9206715","lat":"22.47880987","height":"4.87","珠基高程":"4.13","land":"蛇口","district":"南山区","value":"130","ObservedTime":"2020/4/9 13:55"},
{"ID":"527","Name":"蛇口招商港务太子湾","SeaCoast":"深圳湾岸段","Section":"7","ForcastStation":"50","lng":"113.9189973","lat":"22.48091763","height":"4.72","珠基高程":"3.98","land":"蛇口","district":"南山区","value":"130","ObservedTime":"2020/4/9 13:55"},
{"ID":"528","Name":"蛇口客运码头","SeaCoast":"深圳湾岸段","Section":"7","ForcastStation":"50","lng":"113.9213646","lat":"22.48273101","height":"3.36","珠基高程":"2.62","land":"蛇口","district":"南山区","value":"130","ObservedTime":"2020/4/9 13:55"},
{"ID":"529","Name":"蛇口海上世界","SeaCoast":"深圳湾岸段","Section":"7","ForcastStation":"50","lng":"113.9241003","lat":"22.48525266","height":"3.97","珠基高程":"3.22","land":"蛇口","district":"南山区","value":"130","ObservedTime":"2020/4/9 13:55"},
{"ID":"530","Name":"蛇口边防工作站","SeaCoast":"深圳湾岸段","Section":"7","ForcastStation":"51","lng":"113.9279799","lat":"22.48483822","height":"3.97","珠基高程":"3.22","land":"蛇口","district":"南山区","value":"130","ObservedTime":"2020/4/9 13:55"},
{"ID":"531","Name":"南海玫瑰园一期","SeaCoast":"深圳湾岸段","Section":"7","ForcastStation":"51","lng":"113.9285476","lat":"22.48840211","height":"3.74","珠基高程":"3","land":"蛇口","district":"南山区","value":"130","ObservedTime":"2020/4/9 13:55"},
{"ID":"532","Name":"南海玫瑰园一期","SeaCoast":"深圳湾岸段","Section":"7","ForcastStation":"52","lng":"113.9283104","lat":"22.4903725","height":"3.47","珠基高程":"2.72","land":"蛇口","district":"南山区","value":"130","ObservedTime":"2020/4/9 13:55"},
{"ID":"533","Name":"南海玫瑰园二期","SeaCoast":"深圳湾岸段","Section":"7","ForcastStation":"52","lng":"113.9321104","lat":"22.48948869","height":"3.67","珠基高程":"2.92","land":"蛇口","district":"南山区","value":"130","ObservedTime":"2020/4/9 13:55"},
{"ID":"534","Name":"蛇口渔港食出码头","SeaCoast":"深圳湾岸段","Section":"7","ForcastStation":"52","lng":"113.936694","lat":"22.48838475","height":"3.44","珠基高程":"2.69","land":"蛇口","district":"南山区","value":"130","ObservedTime":"2020/4/9 13:55"},
{"ID":"535","Name":"蛇口渔人码头","SeaCoast":"深圳湾岸段","Section":"7","ForcastStation":"52","lng":"113.9332535","lat":"22.48685747","height":"3.34","珠基高程":"2.59","land":"蛇口","district":"南山区","value":"130","ObservedTime":"2020/4/9 13:55"},
{"ID":"536","Name":"蛇口边防工作站","SeaCoast":"深圳湾岸段","Section":"7","ForcastStation":"53","lng":"113.932969","lat":"22.48501064","height":"3.87","珠基高程":"3.13","land":"蛇口","district":"南山区","value":"130","ObservedTime":"2020/4/9 13:55"},
{"ID":"537","Name":"南海玫瑰园三期","SeaCoast":"深圳湾岸段","Section":"7","ForcastStation":"53","lng":"113.9358679","lat":"22.48415587","height":"4.02","珠基高程":"3.28","land":"蛇口","district":"南山区","value":"130","ObservedTime":"2020/4/9 13:55"},
{"ID":"538","Name":"半岛城邦","SeaCoast":"深圳湾岸段","Section":"7","ForcastStation":"54","lng":"113.9396709","lat":"22.48332767","height":"4.11","珠基高程":"3.37","land":"蛇口","district":"南山区","value":"130","ObservedTime":"2020/4/9 13:55"},
{"ID":"539","Name":"半岛城邦备用地","SeaCoast":"深圳湾岸段","Section":"7","ForcastStation":"55","lng":"113.9426461","lat":"22.48253076","height":"4.36","珠基高程":"3.62","land":"蛇口","district":"南山区","value":"130","ObservedTime":"2020/4/9 13:55"},
{"ID":"540","Name":"半岛城邦备用地","SeaCoast":"深圳湾岸段","Section":"7","ForcastStation":"56","lng":"113.9429267","lat":"22.48529375","height":"3.43","珠基高程":"2.68","land":"蛇口","district":"南山区","value":"131","ObservedTime":"2020/4/9 13:55"},
{"ID":"541","Name":"蛇口东角头码头","SeaCoast":"深圳湾岸段","Section":"7","ForcastStation":"56","lng":"113.9460113","lat":"22.4874901","height":"3.73","珠基高程":"2.98","land":"蛇口","district":"南山区","value":"131","ObservedTime":"2020/4/9 13:55"},
{"ID":"542","Name":"蛇口东角头码头","SeaCoast":"深圳湾岸段","Section":"7","ForcastStation":"56","lng":"113.9483909","lat":"22.48592968","height":"3.02","珠基高程":"2.28","land":"蛇口","district":"南山区","value":"131","ObservedTime":"2020/4/9 13:55"},
{"ID":"543","Name":"蛇口东角头码头","SeaCoast":"深圳湾岸段","Section":"7","ForcastStation":"56","lng":"113.9506451","lat":"22.48806425","height":"4.43","珠基高程":"3.68","land":"蛇口","district":"南山区","value":"131","ObservedTime":"2020/4/9 13:55"},
{"ID":"544","Name":"蛇口东角头码头","SeaCoast":"深圳湾岸段","Section":"7","ForcastStation":"57","lng":"113.9494717","lat":"22.48961136","height":"4.02","珠基高程":"3.28","land":"蛇口","district":"南山区","value":"132","ObservedTime":"2020/4/9 13:55"},
{"ID":"545","Name":"深圳湾运动公园","SeaCoast":"深圳湾岸段","Section":"7","ForcastStation":"57","lng":"113.95407","lat":"22.49098604","height":"4.26","珠基高程":"3.52","land":"深圳湾公园","district":"南山区","value":"132","ObservedTime":"2020/4/9 13:55"},
{"ID":"546","Name":"深圳湾运动公园","SeaCoast":"深圳湾岸段","Section":"7","ForcastStation":"57","lng":"113.9574566","lat":"22.49281912","height":"3.36","珠基高程":"2.62","land":"深圳湾公园","district":"南山区","value":"132","ObservedTime":"2020/4/9 13:55"},
{"ID":"547","Name":"深圳湾婚庆公园","SeaCoast":"深圳湾岸段","Section":"7","ForcastStation":"58","lng":"113.9592804","lat":"22.49602495","height":"3.63","珠基高程":"2.88","land":"深圳湾公园","district":"南山区","value":"132","ObservedTime":"2020/4/9 13:55"},
{"ID":"548","Name":"深圳湾潮汐公园","SeaCoast":"深圳湾岸段","Section":"8","ForcastStation":"59","lng":"113.9585982","lat":"22.49957813","height":"3.63","珠基高程":"2.88","land":"深圳湾公园","district":"南山区","value":"132","ObservedTime":"2020/4/9 13:55"},
{"ID":"549","Name":"深圳湾大运火炬塔广场","SeaCoast":"深圳湾岸段","Section":"8","ForcastStation":"59","lng":"113.9598735","lat":"22.50300386","height":"3.82","珠基高程":"3.08","land":"深圳湾公园","district":"南山区","value":"132","ObservedTime":"2020/4/9 13:55"},
{"ID":"550","Name":"深圳湾大运火炬塔广场","SeaCoast":"深圳湾岸段","Section":"8","ForcastStation":"60","lng":"113.96004","lat":"22.50666883","height":"3.76","珠基高程":"3.01","land":"深圳湾公园","district":"南山区","value":"133","ObservedTime":"2020/4/9 13:55"},
{"ID":"551","Name":"深圳湾公园弯山月谷","SeaCoast":"深圳湾岸段","Section":"8","ForcastStation":"60","lng":"113.9597105","lat":"22.51026543","height":"4.33","珠基高程":"3.58","land":"深圳湾公园","district":"南山区","value":"133","ObservedTime":"2020/4/9 13:55"},
{"ID":"552","Name":"深圳湾公园弯山月谷","SeaCoast":"深圳湾岸段","Section":"8","ForcastStation":"60","lng":"113.9610024","lat":"22.51368509","height":"3.43","珠基高程":"2.68","land":"深圳湾公园","district":"南山区","value":"133","ObservedTime":"2020/4/9 13:55"},
{"ID":"553","Name":"深圳湾内湖公园","SeaCoast":"深圳湾岸段","Section":"8","ForcastStation":"60","lng":"113.9572885","lat":"22.51469775","height":"4.22","珠基高程":"3.47","land":"深圳湾公园","district":"南山区","value":"133","ObservedTime":"2020/4/9 13:55"},
{"ID":"554","Name":"深圳湾内湖公园","SeaCoast":"深圳湾岸段","Section":"8","ForcastStation":"60","lng":"113.9540667","lat":"22.51266014","height":"4.32","珠基高程":"3.58","land":"深圳湾公园","district":"南山区","value":"133","ObservedTime":"2020/4/9 13:55"},
{"ID":"555","Name":"深圳湾内湖公园","SeaCoast":"深圳湾岸段","Section":"8","ForcastStation":"61","lng":"113.9508725","lat":"22.51345476","height":"4.42","珠基高程":"3.68","land":"深圳湾公园","district":"南山区","value":"133","ObservedTime":"2020/4/9 13:55"},
{"ID":"556","Name":"深圳湾内湖公园","SeaCoast":"深圳湾岸段","Section":"8","ForcastStation":"61","lng":"113.9531964","lat":"22.51641414","height":"4.43","珠基高程":"3.69","land":"深圳湾公园","district":"南山区","value":"133","ObservedTime":"2020/4/9 13:55"},
{"ID":"557","Name":"深圳湾内湖公园","SeaCoast":"深圳湾岸段","Section":"8","ForcastStation":"61","lng":"113.9548175","lat":"22.51938236","height":"4.44","珠基高程":"3.7","land":"深圳湾公园","district":"南山区","value":"133","ObservedTime":"2020/4/9 13:55"},
{"ID":"558","Name":"深圳湾流花公园","SeaCoast":"深圳湾岸段","Section":"8","ForcastStation":"62","lng":"113.9608918","lat":"22.51730021","height":"4.13","珠基高程":"3.39","land":"深圳湾公园","district":"南山区","value":"133","ObservedTime":"2020/4/9 13:55"},
{"ID":"559","Name":"深圳湾追风滑轮公园","SeaCoast":"深圳湾岸段","Section":"8","ForcastStation":"62","lng":"113.9613741","lat":"22.52089021","height":"4.3","珠基高程":"3.56","land":"深圳湾公园","district":"南山区","value":"133","ObservedTime":"2020/4/9 13:55"},
{"ID":"560","Name":"大运会火炬塔纪念广场","SeaCoast":"深圳湾岸段","Section":"8","ForcastStation":"62","lng":"113.9610006","lat":"22.52447318","height":"4.3","珠基高程":"3.56","land":"深圳湾公园","district":"南山区","value":"133","ObservedTime":"2020/4/9 13:55"},
{"ID":"561","Name":"大沙河口","SeaCoast":"深圳湾岸段","Section":"8","ForcastStation":"62","lng":"113.9612822","lat":"22.52944696","height":"4.62","珠基高程":"3.88","land":"深圳湾公园","district":"南山区","value":"133","ObservedTime":"2020/4/9 13:55"},
{"ID":"562","Name":"大沙河口","SeaCoast":"深圳湾岸段","Section":"8","ForcastStation":"62","lng":"113.9619582","lat":"22.52589249","height":"4.42","珠基高程":"3.68","land":"深圳湾公园","district":"南山区","value":"133","ObservedTime":"2020/4/9 13:55"},
{"ID":"563","Name":"深圳湾公园小沙山","SeaCoast":"深圳湾岸段","Section":"8","ForcastStation":"63","lng":"113.9657987","lat":"22.52544604","height":"4.25","珠基高程":"3.51","land":"深圳湾公园","district":"南山区","value":"133","ObservedTime":"2020/4/9 13:55"},
{"ID":"564","Name":"深圳湾公园北湾鹭港","SeaCoast":"深圳湾岸段","Section":"8","ForcastStation":"64","lng":"113.9695525","lat":"22.52458947","height":"4.42","珠基高程":"3.68","land":"深圳湾公园","district":"南山区","value":"133","ObservedTime":"2020/4/9 13:55"},
{"ID":"565","Name":"深圳湾公园","SeaCoast":"深圳湾岸段","Section":"8","ForcastStation":"65","lng":"113.9734241","lat":"22.52496085","height":"4.45","珠基高程":"3.71","land":"深圳湾公园","district":"南山区","value":"134","ObservedTime":"2020/4/9 13:55"},
{"ID":"566","Name":"深圳湾公园","SeaCoast":"深圳湾岸段","Section":"8","ForcastStation":"66","lng":"113.9773031","lat":"22.52496981","height":"4.37","珠基高程":"3.62","land":"深圳湾公园","district":"南山区","value":"134","ObservedTime":"2020/4/9 13:55"},
{"ID":"567","Name":"深圳湾公园","SeaCoast":"深圳湾岸段","Section":"8","ForcastStation":"67","lng":"113.9811824","lat":"22.52521496","height":"4.34","珠基高程":"3.6","land":"深圳湾公园","district":"南山区","value":"135","ObservedTime":"2020/4/9 13:55"},
{"ID":"568","Name":"深圳湾公园","SeaCoast":"深圳湾岸段","Section":"8","ForcastStation":"67","lng":"113.9850698","lat":"22.52524629","height":"4.27","珠基高程":"3.53","land":"深圳湾公园","district":"南山区","value":"135","ObservedTime":"2020/4/9 13:55"},
{"ID":"569","Name":"深圳湾公园","SeaCoast":"深圳湾岸段","Section":"8","ForcastStation":"67","lng":"113.988708","lat":"22.5240603","height":"4.27","珠基高程":"3.52","land":"深圳湾公园","district":"南山区","value":"135","ObservedTime":"2020/4/9 13:55"},
{"ID":"570","Name":"深圳湾公园","SeaCoast":"深圳湾岸段","Section":"8","ForcastStation":"67","lng":"113.992311","lat":"22.52548766","height":"4.23","珠基高程":"3.49","land":"深圳湾公园","district":"南山区","value":"135","ObservedTime":"2020/4/9 13:55"},
{"ID":"571","Name":"深圳湾公园","SeaCoast":"深圳湾岸段","Section":"8","ForcastStation":"67","lng":"113.9961802","lat":"22.52584602","height":"4.1","珠基高程":"3.36","land":"深圳湾公园","district":"南山区","value":"135","ObservedTime":"2020/4/9 13:55"},
{"ID":"572","Name":"深圳湾公园","SeaCoast":"深圳湾岸段","Section":"8","ForcastStation":"67","lng":"113.9999393","lat":"22.52682174","height":"4.07","珠基高程":"3.32","land":"深圳湾公园","district":"南山区","value":"135","ObservedTime":"2020/4/9 13:55"},
{"ID":"573","Name":"红树林滨海生态公园","SeaCoast":"深圳湾岸段","Section":"8","ForcastStation":"67","lng":"114.0038262","lat":"22.52706541","height":"4.46","珠基高程":"3.71","land":"福田红树林","district":"福田区","value":"135","ObservedTime":"2020/4/9 13:55"},
{"ID":"574","Name":"红树林滨海生态公园","SeaCoast":"深圳湾岸段","Section":"8","ForcastStation":"67","lng":"114.0076815","lat":"22.52761409","height":"4.42","珠基高程":"3.68","land":"福田红树林","district":"福田区","value":"135","ObservedTime":"2020/4/9 13:55"},
{"ID":"575","Name":"红树林滨海生态公园","SeaCoast":"深圳湾岸段","Section":"8","ForcastStation":"67","lng":"114.0098616","lat":"22.5288128","height":"4.45","珠基高程":"3.71","land":"福田红树林","district":"福田区","value":"135","ObservedTime":"2020/4/9 13:55"},
{"ID":"576","Name":"红树林滨海生态公园","SeaCoast":"深圳湾岸段","Section":"9","ForcastStation":"68","lng":"114.0088517","lat":"22.5310588","height":"4.43","珠基高程":"3.69","land":"福田红树林","district":"福田区","value":"135","ObservedTime":"2020/4/9 13:55"},
{"ID":"577","Name":"滨海大道","SeaCoast":"深圳湾岸段","Section":"9","ForcastStation":"68","lng":"114.0119644","lat":"22.53323005","height":"4.62","珠基高程":"3.88","land":"福田红树林","district":"福田区","value":"135","ObservedTime":"2020/4/9 13:55"},
{"ID":"578","Name":"滨海大道","SeaCoast":"深圳湾岸段","Section":"9","ForcastStation":"68","lng":"114.0158532","lat":"22.53288887","height":"7.73","珠基高程":"6.98","land":"福田红树林","district":"福田区","value":"135","ObservedTime":"2020/4/9 13:55"},
{"ID":"579","Name":"滨海大道","SeaCoast":"深圳湾岸段","Section":"9","ForcastStation":"68","lng":"114.0197582","lat":"22.5326702","height":"5.42","珠基高程":"4.68","land":"福田红树林","district":"福田区","value":"135","ObservedTime":"2020/4/9 13:55"},
{"ID":"580","Name":"滨海大道","SeaCoast":"深圳湾岸段","Section":"9","ForcastStation":"68","lng":"114.0236656","lat":"22.5327054","height":"5.75","珠基高程":"5.01","land":"福田红树林","district":"福田区","value":"135","ObservedTime":"2020/4/9 13:55"},
{"ID":"581","Name":"广深高速公路","SeaCoast":"深圳湾岸段","Section":"9","ForcastStation":"68","lng":"114.0273639","lat":"22.53149985","height":"5.98","珠基高程":"5.24","land":"福田红树林","district":"福田区","value":"135","ObservedTime":"2020/4/9 13:55"},
{"ID":"582","Name":"广深高速公路","SeaCoast":"深圳湾岸段","Section":"9","ForcastStation":"68","lng":"114.0302359","lat":"22.52899952","height":"6.72","珠基高程":"5.98","land":"福田红树林","district":"福田区","value":"135","ObservedTime":"2020/4/9 13:55"},
{"ID":"583","Name":"广深高速公路","SeaCoast":"深圳湾岸段","Section":"9","ForcastStation":"68","lng":"114.0335006","lat":"22.52698082","height":"5.03","珠基高程":"4.28","land":"福田红树林","district":"福田区","value":"135","ObservedTime":"2020/4/9 13:55"},
{"ID":"584","Name":"广深高速公路","SeaCoast":"深圳湾岸段","Section":"9","ForcastStation":"69","lng":"114.0368665","lat":"22.52508089","height":"4.45","珠基高程":"3.71","land":"福田红树林","district":"福田区","value":"135","ObservedTime":"2020/4/9 13:55"},
{"ID":"585","Name":"广深高速公路","SeaCoast":"深圳湾岸段","Section":"9","ForcastStation":"70","lng":"114.0402227","lat":"22.52317648","height":"4.52","珠基高程":"3.78","land":"福田红树林","district":"福田区","value":"135","ObservedTime":"2020/4/9 13:55"},
{"ID":"586","Name":"广深高速公路","SeaCoast":"深圳湾岸段","Section":"9","ForcastStation":"70","lng":"114.0435871","lat":"22.52129134","height":"4.57","珠基高程":"3.82","land":"福田红树林","district":"福田区","value":"135","ObservedTime":"2020/4/9 13:55"},
{"ID":"587","Name":"广深高速公路","SeaCoast":"深圳湾岸段","Section":"9","ForcastStation":"70","lng":"114.0470177","lat":"22.51950394","height":"4.65","珠基高程":"3.91","land":"福田红树林","district":"福田区","value":"135","ObservedTime":"2020/4/9 13:55"},
{"ID":"588","Name":"广深高速公路","SeaCoast":"深圳湾岸段","Section":"9","ForcastStation":"70","lng":"114.0504292","lat":"22.51789446","height":"4.67","珠基高程":"3.92","land":"福田红树林","district":"福田区","value":"135","ObservedTime":"2020/4/9 13:55"},
{"ID":"589","Name":"新洲河","SeaCoast":"深圳湾岸段","Section":"9","ForcastStation":"70","lng":"114.0486465","lat":"22.51471042","height":"5.02","珠基高程":"4.28","land":"福田红树林","district":"福田区","value":"135","ObservedTime":"2020/4/9 13:55"},
{"ID":"590","Name":"新洲河口","SeaCoast":"深圳湾岸段","Section":"9","ForcastStation":"71","lng":"114.0466578","lat":"22.51145976","height":"4.03","珠基高程":"3.29","land":"福田红树林","district":"福田区","value":"135","ObservedTime":"2020/4/9 13:55"},
{"ID":"591","Name":"深圳河口","SeaCoast":"深圳湾岸段","Section":"9","ForcastStation":"72","lng":"114.0502231","lat":"22.50992433","height":"4.02","珠基高程":"3.28","land":"福田红树林","district":"福田区","value":"135","ObservedTime":"2020/4/9 13:55"},
{"ID":"592","Name":"深圳河口","SeaCoast":"深圳湾岸段","Section":"9","ForcastStation":"72","lng":"114.053875","lat":"22.50861374","height":"3.73","珠基高程":"2.98","land":"福田红树林","district":"福田区","value":"135","ObservedTime":"2020/4/9 13:55"},
{"ID":"593","Name":"深圳河口","SeaCoast":"深圳湾岸段","Section":"9","ForcastStation":"73","lng":"114.0584693","lat":"22.50762726","height":"4.01","珠基高程":"3.27","land":"福田红树林","district":"福田区","value":"135","ObservedTime":"2020/4/9 13:55"}
]