{"name":"606路-站点","stations":[{"id":"BV10720993","name":"平峦山公交总站","sequence":1,"location":{"lng":113.866570351931,"lat":22.608695690431183}},{"id":"BV10246234","name":"宝安桃源居","sequence":2,"location":{"lng":113.85607459698321,"lat":22.617417397257178}},{"id":"BV10914204","name":"西乡交管所1","sequence":3,"location":{"lng":113.85950056740333,"lat":22.611624190214638}},{"id":"BV11314857","name":"宝安纯中医医院","sequence":4,"location":{"lng":113.86684817561321,"lat":22.604243664248852}},{"id":"BV10523541","name":"朱坳水厂","sequence":5,"location":{"lng":113.86713800158947,"lat":22.600079585098438}},{"id":"BV10242315","name":"臣田工业区","sequence":6,"location":{"lng":113.86801792118794,"lat":22.596434084585031}},{"id":"BV10745115","name":"宝安农批市场东","sequence":7,"location":{"lng":113.87119006406617,"lat":22.592038073922083}},{"id":"BV11319383","name":"河西金雅园","sequence":8,"location":{"lng":113.87413245656803,"lat":22.5876654826168}},{"id":"BV10242334","name":"港隆城","sequence":9,"location":{"lng":113.87658562982171,"lat":22.585180934059544}},{"id":"BV10745931","name":"西乡街道办西","sequence":10,"location":{"lng":113.87812913492705,"lat":22.583629358084156}},{"id":"BV10242312","name":"西乡街道办","sequence":11,"location":{"lng":113.88043755493177,"lat":22.58366404323592}},{"id":"BV10243981","name":"嘉华花园","sequence":12,"location":{"lng":113.88288982452058,"lat":22.585671375605934}},{"id":"BV10246413","name":"宝安日报社","sequence":13,"location":{"lng":113.88664037430978,"lat":22.588111018998273}},{"id":"BV10246404","name":"宝安新村","sequence":14,"location":{"lng":113.89178771107143,"lat":22.589989506126681}},{"id":"BV10246412","name":"宝安公园西门","sequence":15,"location":{"lng":113.89314705757548,"lat":22.588339978030529}},{"id":"BV10246411","name":"宝安公园","sequence":16,"location":{"lng":113.89363560604826,"lat":22.586400290720132}},{"id":"BV10246401","name":"上合小学","sequence":17,"location":{"lng":113.89416318262522,"lat":22.584359605109903}},{"id":"BV10836939","name":"上合市场1","sequence":18,"location":{"lng":113.89649911319694,"lat":22.582728966771512}},{"id":"BV11315962","name":"瓦窑花园","sequence":19,"location":{"lng":113.90080466356666,"lat":22.585111376566466}},{"id":"BV10246172","name":"东方明工业城","sequence":20,"location":{"lng":113.9051635342644,"lat":22.584620280264069}},{"id":"BV10246410","name":"大家好广场","sequence":21,"location":{"lng":113.90440039681764,"lat":22.582735764225021}},{"id":"BV10923075","name":"上川村","sequence":22,"location":{"lng":113.90094207403382,"lat":22.579751971158654}},{"id":"BV11321891","name":"水口花园","sequence":23,"location":{"lng":113.89808755210599,"lat":22.577330553048093}},{"id":"BV10625535","name":"宝安中医院","sequence":24,"location":{"lng":113.89402573495076,"lat":22.5737927603799}},{"id":"BV10971401","name":"宝民社区","sequence":25,"location":{"lng":113.89562223994298,"lat":22.570333265417904}},{"id":"BV10242321","name":"汉宝大厦","sequence":26,"location":{"lng":113.89766784296349,"lat":22.568315496973003}},{"id":"BV10242343","name":"甲岸村","sequence":27,"location":{"lng":113.90034764795692,"lat":22.565646516296031}},{"id":"BV10968099","name":"建行宝安支行","sequence":28,"location":{"lng":113.90295908082814,"lat":22.56303322062341}},{"id":"BV10246397","name":"三区金融街","sequence":29,"location":{"lng":113.90521005545685,"lat":22.560772714494405}},{"id":"BV10246399","name":"宝安法院","sequence":30,"location":{"lng":113.90704966967012,"lat":22.558956124121316}},{"id":"BV10242324","name":"沁园公园","sequence":31,"location":{"lng":113.90480615616188,"lat":22.557096170339275}},{"id":"BV10246396","name":"宝安法院北","sequence":32,"location":{"lng":113.90450094125106,"lat":22.558845127629919}}]}