{"name":"211路-站点","stations":[{"id":"BV10571680","name":"梧桐山总站","sequence":1,"location":{"lng":114.18598284104965,"lat":22.595815805376979}},{"id":"BV10245378","name":"塘坑仔","sequence":2,"location":{"lng":114.18310726944301,"lat":22.598537348338233}},{"id":"BV11130647","name":"塘坑仔西","sequence":3,"location":{"lng":114.1815230550791,"lat":22.599919309645845}},{"id":"BV11320348","name":"兰科中心","sequence":4,"location":{"lng":114.17915978614161,"lat":22.600788887765148}},{"id":"BV10248215","name":"新田村","sequence":5,"location":{"lng":114.17489828965023,"lat":22.603089682229051}},{"id":"BV10548966","name":"望桐信告地路口","sequence":6,"location":{"lng":114.17024747548679,"lat":22.607433325539798}},{"id":"BV11328227","name":"望桐桂花路口","sequence":7,"location":{"lng":114.16412691608971,"lat":22.606830854234985}},{"id":"BV10248218","name":"望桐路西","sequence":8,"location":{"lng":114.16312524145745,"lat":22.606195058324573}},{"id":"BV11325404","name":"九尾岭隧道口","sequence":9,"location":{"lng":114.1405691183235,"lat":22.57922326825561}},{"id":"BV10243631","name":"水库","sequence":10,"location":{"lng":114.13769365626433,"lat":22.572093457256585}},{"id":"BV10883381","name":"水库新村1","sequence":11,"location":{"lng":114.13499474763859,"lat":22.565699959286562}},{"id":"BV10383163","name":"竹园宾馆2","sequence":12,"location":{"lng":114.12905378769307,"lat":22.56131291271533}},{"id":"BV10382995","name":"留医部2","sequence":13,"location":{"lng":114.12687425319012,"lat":22.560238148738641}},{"id":"BV10383152","name":"东门中2","sequence":14,"location":{"lng":114.11881796771606,"lat":22.554114352218665}},{"id":"BV10382979","name":"东门3","sequence":15,"location":{"lng":114.11672449468433,"lat":22.550561556949134}},{"id":"BV10382559","name":"金城大厦2","sequence":16,"location":{"lng":114.11728180444395,"lat":22.545328464627787}},{"id":"BV10244963","name":"阳光酒店","sequence":17,"location":{"lng":114.11704552873297,"lat":22.543217376019534}},{"id":"BV11160153","name":"罗湖小学3","sequence":18,"location":{"lng":114.11366009569119,"lat":22.539387559094216}},{"id":"BV10245365","name":"建设路总站","sequence":19,"location":{"lng":114.11177310149134,"lat":22.539697018522773}}]}