{"name":"610路-站点","stations":[{"id":"BV10944284","name":"大宝北路公交总站","sequence":1,"location":{"lng":113.90452926839205,"lat":22.585484398635653}},{"id":"BV10246172","name":"东方明工业城","sequence":2,"location":{"lng":113.9051705368685,"lat":22.584614278432937}},{"id":"BV10246410","name":"大家好广场","sequence":3,"location":{"lng":113.90440039707046,"lat":22.582731764687757}},{"id":"BV10923075","name":"上川村","sequence":4,"location":{"lng":113.90088904921019,"lat":22.5797079852201}},{"id":"BV11321891","name":"水口花园","sequence":5,"location":{"lng":113.89811056569067,"lat":22.577353549449292}},{"id":"BV10625535","name":"宝安中医院","sequence":6,"location":{"lng":113.8940567602484,"lat":22.573805763036525}},{"id":"BV10971401","name":"宝民社区","sequence":7,"location":{"lng":113.89556819497264,"lat":22.570386256783358}},{"id":"BV10242321","name":"汉宝大厦","sequence":8,"location":{"lng":113.89767584860734,"lat":22.568311497130367}},{"id":"BV10242343","name":"甲岸村","sequence":9,"location":{"lng":113.90033263910316,"lat":22.565656517562058}},{"id":"BV10968099","name":"建行宝安支行","sequence":10,"location":{"lng":113.90296608619217,"lat":22.562995222205114}},{"id":"BV10246537","name":"石鸿花园","sequence":11,"location":{"lng":113.89686696311617,"lat":22.557631469165891}},{"id":"BV10244069","name":"宝安市场监管分局","sequence":12,"location":{"lng":113.8948363259417,"lat":22.559176235930167}},{"id":"BV10244068","name":"海滨中学","sequence":13,"location":{"lng":113.8917434546819,"lat":22.561732514086732}},{"id":"BV10244164","name":"创业天虹南","sequence":14,"location":{"lng":113.88862709509436,"lat":22.564760325011136}},{"id":"BV10244179","name":"海滨广场","sequence":15,"location":{"lng":113.88573259115857,"lat":22.567545850428694}},{"id":"BV10735843","name":"翻身小学","sequence":16,"location":{"lng":113.88376900700985,"lat":22.569444649235695}},{"id":"BV10244153","name":"开屏花园","sequence":17,"location":{"lng":113.87923041171545,"lat":22.573870267779352}},{"id":"BV10242784","name":"河东","sequence":18,"location":{"lng":113.87476047241727,"lat":22.572406765655945}},{"id":"BV10242783","name":"西乡步行街","sequence":19,"location":{"lng":113.8711380488602,"lat":22.575017005603979}},{"id":"BV10242782","name":"同仁妇科医院","sequence":20,"location":{"lng":113.86645905874146,"lat":22.578348483613116}},{"id":"BV10242831","name":"大益广场","sequence":21,"location":{"lng":113.86485364587399,"lat":22.581978143291739}},{"id":"BV10918499","name":"宝安文具批发市场","sequence":22,"location":{"lng":113.86791949863627,"lat":22.584365486553892}},{"id":"BV10715863","name":"宝安客运中心","sequence":23,"location":{"lng":113.87664612782722,"lat":22.594628805472695}},{"id":"BV10242331","name":"凤凰岗村","sequence":24,"location":{"lng":113.87504929628635,"lat":22.598532912437289}},{"id":"BV10242330","name":"凤岗小学","sequence":25,"location":{"lng":113.87745602198319,"lat":22.600608661343742}},{"id":"BV10242329","name":"铁岗村","sequence":26,"location":{"lng":113.88155894189312,"lat":22.602583351997414}},{"id":"BV10242328","name":"铁岗公园","sequence":27,"location":{"lng":113.8850575832268,"lat":22.602011444387941}},{"id":"BV11311160","name":"新中外国语学校","sequence":28,"location":{"lng":113.88763151006711,"lat":22.604014326886421}},{"id":"BV10248697","name":"曦城商业中心","sequence":29,"location":{"lng":113.89587965086774,"lat":22.598584950021191}},{"id":"BV10248696","name":"曦城三号门","sequence":30,"location":{"lng":113.90038492304046,"lat":22.593269431799715}},{"id":"BV10909794","name":"大宝北公交场站","sequence":31,"location":{"lng":113.90447625618019,"lat":22.58538442819636}}]}